{
   "results" : 
   [
      {
         "address_components" : 
         [
            {
               "long_name" : "Ковельський район",
               "short_name" : "Ковельський район",
               "types" : 
               [
                  "administrative_area_level_2",
                  "political"
               ]
            },
            {
               "long_name" : "Волинська область",
               "short_name" : "Волинська область",
               "types" : 
               [
                  "administrative_area_level_1",
                  "political"
               ]
            },
            {
               "long_name" : "Україна",
               "short_name" : "UA",
               "types" : 
               [
                  "country",
                  "political"
               ]
            }
         ],
         "formatted_address" : "Ковельський район, Волинська область, Україна",
         "geometry" : 
         {
            "bounds" : 
            {
               "northeast" : 
               {
                  "lat" : 51.412778,
                  "lng" : 25.409608
               },
               "southwest" : 
               {
                  "lat" : 51.001411,
                  "lng" : 24.4706039
               }
            },
            "location" : 
            {
               "lat" : 51.157963,
               "lng" : 24.9486783
            },
            "location_type" : "APPROXIMATE",
            "viewport" : 
            {
               "northeast" : 
               {
                  "lat" : 51.412778,
                  "lng" : 25.409608
               },
               "southwest" : 
               {
                  "lat" : 51.001411,
                  "lng" : 24.4706039
               }
            }
         },
         "partial_match" : true,
         "place_id" : "ChIJpwWsLfgtJEcR3j_eqEbcaZs",
         "types" : 
         [
            "administrative_area_level_2",
            "political"
         ]
      },
      {
         "address_components" : 
         [
            {
               "long_name" : "Грабове",
               "short_name" : "Грабове",
               "types" : 
               [
                  "locality",
                  "political"
               ]
            },
            {
               "long_name" : "Шацький район",
               "short_name" : "Шацький район",
               "types" : 
               [
                  "administrative_area_level_2",
                  "political"
               ]
            },
            {
               "long_name" : "Волинська область",
               "short_name" : "Волинська область",
               "types" : 
               [
                  "administrative_area_level_1",
                  "political"
               ]
            },
            {
               "long_name" : "Україна",
               "short_name" : "UA",
               "types" : 
               [
                  "country",
                  "political"
               ]
            },
            {
               "long_name" : "44023",
               "short_name" : "44023",
               "types" : 
               [
                  "postal_code"
               ]
            }
         ],
         "formatted_address" : "Грабове, Волинська область, Україна, 44023",
         "geometry" : 
         {
            "bounds" : 
            {
               "northeast" : 
               {
                  "lat" : 51.4452651,
                  "lng" : 23.71001
               },
               "southwest" : 
               {
                  "lat" : 51.430159,
                  "lng" : 23.687726
               }
            },
            "location" : 
            {
               "lat" : 51.4382275,
               "lng" : 23.6969605
            },
            "location_type" : "APPROXIMATE",
            "viewport" : 
            {
               "northeast" : 
               {
                  "lat" : 51.4452651,
                  "lng" : 23.71001
               },
               "southwest" : 
               {
                  "lat" : 51.430159,
                  "lng" : 23.687726
               }
            }
         },
         "partial_match" : true,
         "place_id" : "ChIJrRxqoCvvI0cR3sy-m0j2aQg",
         "types" : 
         [
            "locality",
            "political"
         ]
      }
   ],
   "status" : "OK"
}