{
   "results" : 
   [
      {
         "address_components" : 
         [
            {
               "long_name" : "Могилів-Подільський район",
               "short_name" : "Могилів-Подільський район",
               "types" : 
               [
                  "administrative_area_level_2",
                  "political"
               ]
            },
            {
               "long_name" : "Вінницька область",
               "short_name" : "Вінницька область",
               "types" : 
               [
                  "administrative_area_level_1",
                  "political"
               ]
            },
            {
               "long_name" : "Україна",
               "short_name" : "UA",
               "types" : 
               [
                  "country",
                  "political"
               ]
            }
         ],
         "formatted_address" : "Могилів-Подільський район, Вінницька область, Україна",
         "geometry" : 
         {
            "bounds" : 
            {
               "northeast" : 
               {
                  "lat" : 48.6838191,
                  "lng" : 28.105556
               },
               "southwest" : 
               {
                  "lat" : 48.307752,
                  "lng" : 27.4577519
               }
            },
            "location" : 
            {
               "lat" : 48.53353569999999,
               "lng" : 27.7746536
            },
            "location_type" : "APPROXIMATE",
            "viewport" : 
            {
               "northeast" : 
               {
                  "lat" : 48.6838191,
                  "lng" : 28.105556
               },
               "southwest" : 
               {
                  "lat" : 48.307752,
                  "lng" : 27.4577519
               }
            }
         },
         "partial_match" : true,
         "place_id" : "ChIJ6ZrK7A4mM0cRyqQ2ELkRBmA",
         "types" : 
         [
            "administrative_area_level_2",
            "political"
         ]
      },
      {
         "address_components" : 
         [
            {
               "long_name" : "Цекинівка",
               "short_name" : "Цекинівка",
               "types" : 
               [
                  "locality",
                  "political"
               ]
            },
            {
               "long_name" : "Ямпільський район",
               "short_name" : "Ямпільський район",
               "types" : 
               [
                  "administrative_area_level_2",
                  "political"
               ]
            },
            {
               "long_name" : "Вінницька область",
               "short_name" : "Вінницька область",
               "types" : 
               [
                  "administrative_area_level_1",
                  "political"
               ]
            },
            {
               "long_name" : "Україна",
               "short_name" : "UA",
               "types" : 
               [
                  "country",
                  "political"
               ]
            }
         ],
         "formatted_address" : "Цекинівка, Вінницька область, Україна",
         "geometry" : 
         {
            "bounds" : 
            {
               "northeast" : 
               {
                  "lat" : 48.1722104,
                  "lng" : 28.3394481
               },
               "southwest" : 
               {
                  "lat" : 48.1359504,
                  "lng" : 28.3052015
               }
            },
            "location" : 
            {
               "lat" : 48.1547686,
               "lng" : 28.3180658
            },
            "location_type" : "APPROXIMATE",
            "viewport" : 
            {
               "northeast" : 
               {
                  "lat" : 48.1722104,
                  "lng" : 28.3394481
               },
               "southwest" : 
               {
                  "lat" : 48.1359504,
                  "lng" : 28.3052015
               }
            }
         },
         "partial_match" : true,
         "place_id" : "ChIJg9xSnhbqzEARZKFSwVQHF7U",
         "types" : 
         [
            "locality",
            "political"
         ]
      }
   ],
   "status" : "OK"
}