{
   "results" : 
   [
      {
         "address_components" : 
         [
            {
               "long_name" : "Михайлівка",
               "short_name" : "Михайлівка",
               "types" : 
               [
                  "locality",
                  "political"
               ]
            },
            {
               "long_name" : "Вінницький район",
               "short_name" : "Вінницький район",
               "types" : 
               [
                  "administrative_area_level_2",
                  "political"
               ]
            },
            {
               "long_name" : "Вінницька область",
               "short_name" : "Вінницька область",
               "types" : 
               [
                  "administrative_area_level_1",
                  "political"
               ]
            },
            {
               "long_name" : "Україна",
               "short_name" : "UA",
               "types" : 
               [
                  "country",
                  "political"
               ]
            },
            {
               "long_name" : "23204",
               "short_name" : "23204",
               "types" : 
               [
                  "postal_code"
               ]
            }
         ],
         "formatted_address" : "Михайлівка, Вінницька область, Україна, 23204",
         "geometry" : 
         {
            "bounds" : 
            {
               "northeast" : 
               {
                  "lat" : 49.20807689999999,
                  "lng" : 28.7371401
               },
               "southwest" : 
               {
                  "lat" : 49.187305,
                  "lng" : 28.7123109
               }
            },
            "location" : 
            {
               "lat" : 49.1955886,
               "lng" : 28.72386389999999
            },
            "location_type" : "APPROXIMATE",
            "viewport" : 
            {
               "northeast" : 
               {
                  "lat" : 49.20807689999999,
                  "lng" : 28.7371401
               },
               "southwest" : 
               {
                  "lat" : 49.187305,
                  "lng" : 28.7123109
               }
            }
         },
         "place_id" : "ChIJUx5hZAdSLUcRePAtWpvDGv0",
         "types" : 
         [
            "locality",
            "political"
         ]
      },
      {
         "address_components" : 
         [
            {
               "long_name" : "Михайлівка",
               "short_name" : "Михайлівка",
               "types" : 
               [
                  "locality",
                  "political"
               ]
            },
            {
               "long_name" : "Гайсинський район",
               "short_name" : "Гайсинський район",
               "types" : 
               [
                  "administrative_area_level_2",
                  "political"
               ]
            },
            {
               "long_name" : "Вінницька область",
               "short_name" : "Вінницька область",
               "types" : 
               [
                  "administrative_area_level_1",
                  "political"
               ]
            },
            {
               "long_name" : "Україна",
               "short_name" : "UA",
               "types" : 
               [
                  "country",
                  "political"
               ]
            },
            {
               "long_name" : "23732",
               "short_name" : "23732",
               "types" : 
               [
                  "postal_code"
               ]
            }
         ],
         "formatted_address" : "Михайлівка, Вінницька область, Україна, 23732",
         "geometry" : 
         {
            "bounds" : 
            {
               "northeast" : 
               {
                  "lat" : 48.851416,
                  "lng" : 29.56776
               },
               "southwest" : 
               {
                  "lat" : 48.81870989999999,
                  "lng" : 29.5217119
               }
            },
            "location" : 
            {
               "lat" : 48.83140359999999,
               "lng" : 29.54472789999999
            },
            "location_type" : "APPROXIMATE",
            "viewport" : 
            {
               "northeast" : 
               {
                  "lat" : 48.851416,
                  "lng" : 29.56776
               },
               "southwest" : 
               {
                  "lat" : 48.81870989999999,
                  "lng" : 29.5217119
               }
            }
         },
         "place_id" : "ChIJsTmSpqiB0kARpsEuiTv3G0E",
         "types" : 
         [
            "locality",
            "political"
         ]
      }
   ],
   "status" : "OK"
}