{
   "results" : 
   [
      {
         "address_components" : 
         [
            {
               "long_name" : "Нижня Апша",
               "short_name" : "Ниж. Апша",
               "types" : 
               [
                  "locality",
                  "political"
               ]
            },
            {
               "long_name" : "Тячівський район",
               "short_name" : "Тячівський район",
               "types" : 
               [
                  "administrative_area_level_2",
                  "political"
               ]
            },
            {
               "long_name" : "Закарпатська область",
               "short_name" : "Закарпатська область",
               "types" : 
               [
                  "administrative_area_level_1",
                  "political"
               ]
            },
            {
               "long_name" : "Україна",
               "short_name" : "UA",
               "types" : 
               [
                  "country",
                  "political"
               ]
            }
         ],
         "formatted_address" : "Нижня Апша, Закарпатська область, Україна",
         "geometry" : 
         {
            "bounds" : 
            {
               "northeast" : 
               {
                  "lat" : 48.0519804,
                  "lng" : 23.86827
               },
               "southwest" : 
               {
                  "lat" : 47.9698126,
                  "lng" : 23.8076735
               }
            },
            "location" : 
            {
               "lat" : 48.004413,
               "lng" : 23.8349311
            },
            "location_type" : "APPROXIMATE",
            "viewport" : 
            {
               "northeast" : 
               {
                  "lat" : 48.0519804,
                  "lng" : 23.86827
               },
               "southwest" : 
               {
                  "lat" : 47.9698126,
                  "lng" : 23.8076735
               }
            }
         },
         "partial_match" : true,
         "place_id" : "ChIJP0igqNCiN0cRId1qSazUohQ",
         "types" : 
         [
            "locality",
            "political"
         ]
      },
      {
         "address_components" : 
         [
            {
               "long_name" : "Рахівський район",
               "short_name" : "Рахівський район",
               "types" : 
               [
                  "administrative_area_level_2",
                  "political"
               ]
            },
            {
               "long_name" : "Закарпатська область",
               "short_name" : "Закарпатська область",
               "types" : 
               [
                  "administrative_area_level_1",
                  "political"
               ]
            },
            {
               "long_name" : "Україна",
               "short_name" : "UA",
               "types" : 
               [
                  "country",
                  "political"
               ]
            }
         ],
         "formatted_address" : "Рахівський район, Закарпатська область, Україна",
         "geometry" : 
         {
            "bounds" : 
            {
               "northeast" : 
               {
                  "lat" : 48.4012889,
                  "lng" : 24.6273425
               },
               "southwest" : 
               {
                  "lat" : 47.896506,
                  "lng" : 23.8612286
               }
            },
            "location" : 
            {
               "lat" : 48.1391697,
               "lng" : 24.2936895
            },
            "location_type" : "APPROXIMATE",
            "viewport" : 
            {
               "northeast" : 
               {
                  "lat" : 48.4012889,
                  "lng" : 24.6273425
               },
               "southwest" : 
               {
                  "lat" : 47.896506,
                  "lng" : 23.8612286
               }
            }
         },
         "partial_match" : true,
         "place_id" : "ChIJYSAsJ4IGN0cR6uJYb0dPf38",
         "types" : 
         [
            "administrative_area_level_2",
            "political"
         ]
      }
   ],
   "status" : "OK"
}