{
   "results" : 
   [
      {
         "address_components" : 
         [
            {
               "long_name" : "Рахівський район",
               "short_name" : "Рахівський район",
               "types" : 
               [
                  "administrative_area_level_2",
                  "political"
               ]
            },
            {
               "long_name" : "Закарпатська область",
               "short_name" : "Закарпатська область",
               "types" : 
               [
                  "administrative_area_level_1",
                  "political"
               ]
            },
            {
               "long_name" : "Україна",
               "short_name" : "UA",
               "types" : 
               [
                  "country",
                  "political"
               ]
            }
         ],
         "formatted_address" : "Рахівський район, Закарпатська область, Україна",
         "geometry" : 
         {
            "bounds" : 
            {
               "northeast" : 
               {
                  "lat" : 48.4012889,
                  "lng" : 24.6273425
               },
               "southwest" : 
               {
                  "lat" : 47.896506,
                  "lng" : 23.8612286
               }
            },
            "location" : 
            {
               "lat" : 48.1391697,
               "lng" : 24.2936895
            },
            "location_type" : "APPROXIMATE",
            "viewport" : 
            {
               "northeast" : 
               {
                  "lat" : 48.4012889,
                  "lng" : 24.6273425
               },
               "southwest" : 
               {
                  "lat" : 47.896506,
                  "lng" : 23.8612286
               }
            }
         },
         "partial_match" : true,
         "place_id" : "ChIJYSAsJ4IGN0cR6uJYb0dPf38",
         "types" : 
         [
            "administrative_area_level_2",
            "political"
         ]
      },
      {
         "address_components" : 
         [
            {
               "long_name" : "Солотвино",
               "short_name" : "Солотвино",
               "types" : 
               [
                  "locality",
                  "political"
               ]
            },
            {
               "long_name" : "Тячівський район",
               "short_name" : "Тячівський район",
               "types" : 
               [
                  "administrative_area_level_2",
                  "political"
               ]
            },
            {
               "long_name" : "Закарпатська область",
               "short_name" : "Закарпатська область",
               "types" : 
               [
                  "administrative_area_level_1",
                  "political"
               ]
            },
            {
               "long_name" : "Україна",
               "short_name" : "UA",
               "types" : 
               [
                  "country",
                  "political"
               ]
            },
            {
               "long_name" : "90575",
               "short_name" : "90575",
               "types" : 
               [
                  "postal_code"
               ]
            }
         ],
         "formatted_address" : "Солотвино, Закарпатська область, Україна, 90575",
         "geometry" : 
         {
            "bounds" : 
            {
               "northeast" : 
               {
                  "lat" : 47.971703,
                  "lng" : 23.8962149
               },
               "southwest" : 
               {
                  "lat" : 47.939332,
                  "lng" : 23.846221
               }
            },
            "location" : 
            {
               "lat" : 47.9557094,
               "lng" : 23.8775791
            },
            "location_type" : "APPROXIMATE",
            "viewport" : 
            {
               "northeast" : 
               {
                  "lat" : 47.971703,
                  "lng" : 23.8962149
               },
               "southwest" : 
               {
                  "lat" : 47.939332,
                  "lng" : 23.846221
               }
            }
         },
         "partial_match" : true,
         "place_id" : "ChIJlZcPamG7N0cRKE2K4obq_-k",
         "types" : 
         [
            "locality",
            "political"
         ]
      }
   ],
   "status" : "OK"
}