{
   "results" : 
   [
      {
         "address_components" : 
         [
            {
               "long_name" : "Тересва",
               "short_name" : "Тересва",
               "types" : 
               [
                  "locality",
                  "political"
               ]
            },
            {
               "long_name" : "Тячівський район",
               "short_name" : "Тячівський район",
               "types" : 
               [
                  "administrative_area_level_2",
                  "political"
               ]
            },
            {
               "long_name" : "Закарпатська область",
               "short_name" : "Закарпатська область",
               "types" : 
               [
                  "administrative_area_level_1",
                  "political"
               ]
            },
            {
               "long_name" : "Україна",
               "short_name" : "UA",
               "types" : 
               [
                  "country",
                  "political"
               ]
            },
            {
               "long_name" : "90564",
               "short_name" : "90564",
               "types" : 
               [
                  "postal_code"
               ]
            }
         ],
         "formatted_address" : "Тересва, Закарпатська область, Україна, 90564",
         "geometry" : 
         {
            "bounds" : 
            {
               "northeast" : 
               {
                  "lat" : 48.015649,
                  "lng" : 23.712382
               },
               "southwest" : 
               {
                  "lat" : 47.986634,
                  "lng" : 23.6710819
               }
            },
            "location" : 
            {
               "lat" : 48.0006147,
               "lng" : 23.6966322
            },
            "location_type" : "APPROXIMATE",
            "viewport" : 
            {
               "northeast" : 
               {
                  "lat" : 48.015649,
                  "lng" : 23.712382
               },
               "southwest" : 
               {
                  "lat" : 47.986634,
                  "lng" : 23.6710819
               }
            }
         },
         "partial_match" : true,
         "place_id" : "ChIJodiycW2XN0cRaMhTjWSl1WE",
         "types" : 
         [
            "locality",
            "political"
         ]
      },
      {
         "address_components" : 
         [
            {
               "long_name" : "Ужгородський район",
               "short_name" : "Ужгородський район",
               "types" : 
               [
                  "administrative_area_level_2",
                  "political"
               ]
            },
            {
               "long_name" : "Закарпатська область",
               "short_name" : "Закарпатська область",
               "types" : 
               [
                  "administrative_area_level_1",
                  "political"
               ]
            },
            {
               "long_name" : "Україна",
               "short_name" : "UA",
               "types" : 
               [
                  "country",
                  "political"
               ]
            }
         ],
         "formatted_address" : "Ужгородський район, Закарпатська область, Україна",
         "geometry" : 
         {
            "bounds" : 
            {
               "northeast" : 
               {
                  "lat" : 48.7826304,
                  "lng" : 22.6558761
               },
               "southwest" : 
               {
                  "lat" : 48.3534499,
                  "lng" : 22.1370556
               }
            },
            "location" : 
            {
               "lat" : 48.529475,
               "lng" : 22.3736162
            },
            "location_type" : "APPROXIMATE",
            "viewport" : 
            {
               "northeast" : 
               {
                  "lat" : 48.7826304,
                  "lng" : 22.6558761
               },
               "southwest" : 
               {
                  "lat" : 48.3534499,
                  "lng" : 22.1370556
               }
            }
         },
         "partial_match" : true,
         "place_id" : "ChIJeR_tQhMbOUcRHCBVLcdS2jg",
         "types" : 
         [
            "administrative_area_level_2",
            "political"
         ]
      }
   ],
   "status" : "OK"
}