{
   "results" : 
   [
      {
         "address_components" : 
         [
            {
               "long_name" : "Ужгородський район",
               "short_name" : "Ужгородський район",
               "types" : 
               [
                  "administrative_area_level_2",
                  "political"
               ]
            },
            {
               "long_name" : "Закарпатська область",
               "short_name" : "Закарпатська область",
               "types" : 
               [
                  "administrative_area_level_1",
                  "political"
               ]
            },
            {
               "long_name" : "Україна",
               "short_name" : "UA",
               "types" : 
               [
                  "country",
                  "political"
               ]
            }
         ],
         "formatted_address" : "Ужгородський район, Закарпатська область, Україна",
         "geometry" : 
         {
            "bounds" : 
            {
               "northeast" : 
               {
                  "lat" : 48.7826304,
                  "lng" : 22.6558761
               },
               "southwest" : 
               {
                  "lat" : 48.3534499,
                  "lng" : 22.1370556
               }
            },
            "location" : 
            {
               "lat" : 48.529475,
               "lng" : 22.3736162
            },
            "location_type" : "APPROXIMATE",
            "viewport" : 
            {
               "northeast" : 
               {
                  "lat" : 48.7826304,
                  "lng" : 22.6558761
               },
               "southwest" : 
               {
                  "lat" : 48.3534499,
                  "lng" : 22.1370556
               }
            }
         },
         "partial_match" : true,
         "place_id" : "ChIJeR_tQhMbOUcRHCBVLcdS2jg",
         "types" : 
         [
            "administrative_area_level_2",
            "political"
         ]
      },
      {
         "address_components" : 
         [
            {
               "long_name" : "Вишка",
               "short_name" : "Вишка",
               "types" : 
               [
                  "locality",
                  "political"
               ]
            },
            {
               "long_name" : "Великоберезнянський район",
               "short_name" : "Великоберезнянський район",
               "types" : 
               [
                  "administrative_area_level_2",
                  "political"
               ]
            },
            {
               "long_name" : "Закарпатська область",
               "short_name" : "Закарпатська область",
               "types" : 
               [
                  "administrative_area_level_1",
                  "political"
               ]
            },
            {
               "long_name" : "Україна",
               "short_name" : "UA",
               "types" : 
               [
                  "country",
                  "political"
               ]
            },
            {
               "long_name" : "89023",
               "short_name" : "89023",
               "types" : 
               [
                  "postal_code"
               ]
            }
         ],
         "formatted_address" : "Вишка, Закарпатська область, Україна, 89023",
         "geometry" : 
         {
            "bounds" : 
            {
               "northeast" : 
               {
                  "lat" : 48.959661,
                  "lng" : 22.725522
               },
               "southwest" : 
               {
                  "lat" : 48.9178169,
                  "lng" : 22.6553691
               }
            },
            "location" : 
            {
               "lat" : 48.9424218,
               "lng" : 22.690647
            },
            "location_type" : "APPROXIMATE",
            "viewport" : 
            {
               "northeast" : 
               {
                  "lat" : 48.959661,
                  "lng" : 22.725522
               },
               "southwest" : 
               {
                  "lat" : 48.9178169,
                  "lng" : 22.6553691
               }
            }
         },
         "partial_match" : true,
         "place_id" : "ChIJYRS2SzllOUcR5AWhbUoje18",
         "types" : 
         [
            "locality",
            "political"
         ]
      }
   ],
   "status" : "OK"
}