{
   "results" : 
   [
      {
         "address_components" : 
         [
            {
               "long_name" : "Берегівський район",
               "short_name" : "Берегівський район",
               "types" : 
               [
                  "administrative_area_level_2",
                  "political"
               ]
            },
            {
               "long_name" : "Закарпатська область",
               "short_name" : "Закарпатська область",
               "types" : 
               [
                  "administrative_area_level_1",
                  "political"
               ]
            },
            {
               "long_name" : "Україна",
               "short_name" : "UA",
               "types" : 
               [
                  "country",
                  "political"
               ]
            }
         ],
         "formatted_address" : "Берегівський район, Закарпатська область, Україна",
         "geometry" : 
         {
            "bounds" : 
            {
               "northeast" : 
               {
                  "lat" : 48.404323,
                  "lng" : 22.8778699
               },
               "southwest" : 
               {
                  "lat" : 48.09168589999999,
                  "lng" : 22.3078829
               }
            },
            "location" : 
            {
               "lat" : 48.2351161,
               "lng" : 22.5802865
            },
            "location_type" : "APPROXIMATE",
            "viewport" : 
            {
               "northeast" : 
               {
                  "lat" : 48.404323,
                  "lng" : 22.8778699
               },
               "southwest" : 
               {
                  "lat" : 48.09168589999999,
                  "lng" : 22.3078829
               }
            }
         },
         "partial_match" : true,
         "place_id" : "ChIJo1cLgXRaOEcRGDp5iGHSlfs",
         "types" : 
         [
            "administrative_area_level_2",
            "political"
         ]
      },
      {
         "address_components" : 
         [
            {
               "long_name" : "Заріччя",
               "short_name" : "Заріччя",
               "types" : 
               [
                  "locality",
                  "political"
               ]
            },
            {
               "long_name" : "Іршавський район",
               "short_name" : "Іршавський район",
               "types" : 
               [
                  "administrative_area_level_2",
                  "political"
               ]
            },
            {
               "long_name" : "Закарпатська область",
               "short_name" : "Закарпатська область",
               "types" : 
               [
                  "administrative_area_level_1",
                  "political"
               ]
            },
            {
               "long_name" : "Україна",
               "short_name" : "UA",
               "types" : 
               [
                  "country",
                  "political"
               ]
            },
            {
               "long_name" : "90123",
               "short_name" : "90123",
               "types" : 
               [
                  "postal_code"
               ]
            }
         ],
         "formatted_address" : "Заріччя, Закарпатська область, Україна, 90123",
         "geometry" : 
         {
            "bounds" : 
            {
               "northeast" : 
               {
                  "lat" : 48.288135,
                  "lng" : 23.003584
               },
               "southwest" : 
               {
                  "lat" : 48.271634,
                  "lng" : 22.9773891
               }
            },
            "location" : 
            {
               "lat" : 48.283492,
               "lng" : 22.9892423
            },
            "location_type" : "APPROXIMATE",
            "viewport" : 
            {
               "northeast" : 
               {
                  "lat" : 48.288135,
                  "lng" : 23.003584
               },
               "southwest" : 
               {
                  "lat" : 48.271634,
                  "lng" : 22.9773891
               }
            }
         },
         "partial_match" : true,
         "place_id" : "ChIJfyOKCJI1OEcRIkUBRei3GHc",
         "types" : 
         [
            "locality",
            "political"
         ]
      }
   ],
   "status" : "OK"
}