{
   "results" : 
   [
      {
         "address_components" : 
         [
            {
               "long_name" : "Берегівський район",
               "short_name" : "Берегівський район",
               "types" : 
               [
                  "administrative_area_level_2",
                  "political"
               ]
            },
            {
               "long_name" : "Закарпатська область",
               "short_name" : "Закарпатська область",
               "types" : 
               [
                  "administrative_area_level_1",
                  "political"
               ]
            },
            {
               "long_name" : "Україна",
               "short_name" : "UA",
               "types" : 
               [
                  "country",
                  "political"
               ]
            }
         ],
         "formatted_address" : "Берегівський район, Закарпатська область, Україна",
         "geometry" : 
         {
            "bounds" : 
            {
               "northeast" : 
               {
                  "lat" : 48.404323,
                  "lng" : 22.8778699
               },
               "southwest" : 
               {
                  "lat" : 48.09168589999999,
                  "lng" : 22.3078829
               }
            },
            "location" : 
            {
               "lat" : 48.2351161,
               "lng" : 22.5802865
            },
            "location_type" : "APPROXIMATE",
            "viewport" : 
            {
               "northeast" : 
               {
                  "lat" : 48.404323,
                  "lng" : 22.8778699
               },
               "southwest" : 
               {
                  "lat" : 48.09168589999999,
                  "lng" : 22.3078829
               }
            }
         },
         "partial_match" : true,
         "place_id" : "ChIJo1cLgXRaOEcRGDp5iGHSlfs",
         "types" : 
         [
            "administrative_area_level_2",
            "political"
         ]
      },
      {
         "address_components" : 
         [
            {
               "long_name" : "Ріпки",
               "short_name" : "Ріпки",
               "types" : 
               [
                  "locality",
                  "political"
               ]
            },
            {
               "long_name" : "Ріпкинський район",
               "short_name" : "Ріпкинський район",
               "types" : 
               [
                  "administrative_area_level_2",
                  "political"
               ]
            },
            {
               "long_name" : "Чернігівська область",
               "short_name" : "Чернігівська область",
               "types" : 
               [
                  "administrative_area_level_1",
                  "political"
               ]
            },
            {
               "long_name" : "Україна",
               "short_name" : "UA",
               "types" : 
               [
                  "country",
                  "political"
               ]
            },
            {
               "long_name" : "15000",
               "short_name" : "15000",
               "types" : 
               [
                  "postal_code"
               ]
            }
         ],
         "formatted_address" : "Ріпки, Чернігівська область, Україна, 15000",
         "geometry" : 
         {
            "bounds" : 
            {
               "northeast" : 
               {
                  "lat" : 51.83421999999999,
                  "lng" : 31.13082709999999
               },
               "southwest" : 
               {
                  "lat" : 51.764397,
                  "lng" : 31.0679501
               }
            },
            "location" : 
            {
               "lat" : 51.8051758,
               "lng" : 31.0940875
            },
            "location_type" : "APPROXIMATE",
            "viewport" : 
            {
               "northeast" : 
               {
                  "lat" : 51.83421999999999,
                  "lng" : 31.13082709999999
               },
               "southwest" : 
               {
                  "lat" : 51.764397,
                  "lng" : 31.0679501
               }
            }
         },
         "partial_match" : true,
         "place_id" : "ChIJdzLm23Ua1UYRRxTRYWC9idg",
         "types" : 
         [
            "locality",
            "political"
         ]
      }
   ],
   "status" : "OK"
}