{
   "results" : 
   [
      {
         "address_components" : 
         [
            {
               "long_name" : "Перечинський район",
               "short_name" : "Перечинський район",
               "types" : 
               [
                  "administrative_area_level_2",
                  "political"
               ]
            },
            {
               "long_name" : "Закарпатська область",
               "short_name" : "Закарпатська область",
               "types" : 
               [
                  "administrative_area_level_1",
                  "political"
               ]
            },
            {
               "long_name" : "Україна",
               "short_name" : "UA",
               "types" : 
               [
                  "country",
                  "political"
               ]
            }
         ],
         "formatted_address" : "Перечинський район, Закарпатська область, Україна",
         "geometry" : 
         {
            "bounds" : 
            {
               "northeast" : 
               {
                  "lat" : 48.862813,
                  "lng" : 22.8979111
               },
               "southwest" : 
               {
                  "lat" : 48.6120121,
                  "lng" : 22.373429
               }
            },
            "location" : 
            {
               "lat" : 48.7103633,
               "lng" : 22.6221479
            },
            "location_type" : "APPROXIMATE",
            "viewport" : 
            {
               "northeast" : 
               {
                  "lat" : 48.862813,
                  "lng" : 22.8979111
               },
               "southwest" : 
               {
                  "lat" : 48.6120121,
                  "lng" : 22.373429
               }
            }
         },
         "partial_match" : true,
         "place_id" : "ChIJB_OexSUNOUcRINukKig_y8E",
         "types" : 
         [
            "administrative_area_level_2",
            "political"
         ]
      },
      {
         "address_components" : 
         [
            {
               "long_name" : "Завосина",
               "short_name" : "Завосина",
               "types" : 
               [
                  "locality",
                  "political"
               ]
            },
            {
               "long_name" : "Великоберезнянський район",
               "short_name" : "Великоберезнянський район",
               "types" : 
               [
                  "administrative_area_level_2",
                  "political"
               ]
            },
            {
               "long_name" : "Закарпатська область",
               "short_name" : "Закарпатська область",
               "types" : 
               [
                  "administrative_area_level_1",
                  "political"
               ]
            },
            {
               "long_name" : "Україна",
               "short_name" : "UA",
               "types" : 
               [
                  "country",
                  "political"
               ]
            }
         ],
         "formatted_address" : "Завосина, Закарпатська область, Україна",
         "geometry" : 
         {
            "bounds" : 
            {
               "northeast" : 
               {
                  "lat" : 48.8594839,
                  "lng" : 22.4048971
               },
               "southwest" : 
               {
                  "lat" : 48.846231,
                  "lng" : 22.383011
               }
            },
            "location" : 
            {
               "lat" : 48.853867,
               "lng" : 22.3932562
            },
            "location_type" : "APPROXIMATE",
            "viewport" : 
            {
               "northeast" : 
               {
                  "lat" : 48.8594839,
                  "lng" : 22.4048971
               },
               "southwest" : 
               {
                  "lat" : 48.846231,
                  "lng" : 22.383011
               }
            }
         },
         "partial_match" : true,
         "place_id" : "ChIJx-CHg8VBOUcRUvGsN5S9UJs",
         "types" : 
         [
            "locality",
            "political"
         ]
      }
   ],
   "status" : "OK"
}