{
   "results" : 
   [
      {
         "address_components" : 
         [
            {
               "long_name" : "Старосамбірський район",
               "short_name" : "Старосамбірський район",
               "types" : 
               [
                  "administrative_area_level_2",
                  "political"
               ]
            },
            {
               "long_name" : "Львівська область",
               "short_name" : "Львівська область",
               "types" : 
               [
                  "administrative_area_level_1",
                  "political"
               ]
            },
            {
               "long_name" : "Україна",
               "short_name" : "UA",
               "types" : 
               [
                  "country",
                  "political"
               ]
            }
         ],
         "formatted_address" : "Старосамбірський район, Львівська область, Україна",
         "geometry" : 
         {
            "bounds" : 
            {
               "northeast" : 
               {
                  "lat" : 49.7193037,
                  "lng" : 23.1630341
               },
               "southwest" : 
               {
                  "lat" : 49.23120189999999,
                  "lng" : 22.6408309
               }
            },
            "location" : 
            {
               "lat" : 49.5048262,
               "lng" : 22.8988386
            },
            "location_type" : "APPROXIMATE",
            "viewport" : 
            {
               "northeast" : 
               {
                  "lat" : 49.7193037,
                  "lng" : 23.1630341
               },
               "southwest" : 
               {
                  "lat" : 49.23120189999999,
                  "lng" : 22.6408309
               }
            }
         },
         "partial_match" : true,
         "place_id" : "ChIJW-y0WmyWO0cRpAY6uTw5TnQ",
         "types" : 
         [
            "administrative_area_level_2",
            "political"
         ]
      },
      {
         "address_components" : 
         [
            {
               "long_name" : "Берегове",
               "short_name" : "Берегове",
               "types" : 
               [
                  "locality",
                  "political"
               ]
            },
            {
               "long_name" : "Берегівська міськрада",
               "short_name" : "Берегівська міськрада",
               "types" : 
               [
                  "administrative_area_level_3",
                  "political"
               ]
            },
            {
               "long_name" : "Закарпатська область",
               "short_name" : "Закарпатська область",
               "types" : 
               [
                  "administrative_area_level_1",
                  "political"
               ]
            },
            {
               "long_name" : "Україна",
               "short_name" : "UA",
               "types" : 
               [
                  "country",
                  "political"
               ]
            },
            {
               "long_name" : "90200",
               "short_name" : "90200",
               "types" : 
               [
                  "postal_code"
               ]
            }
         ],
         "formatted_address" : "Берегове, Закарпатська область, Україна, 90200",
         "geometry" : 
         {
            "bounds" : 
            {
               "northeast" : 
               {
                  "lat" : 48.22204499999999,
                  "lng" : 22.6641011
               },
               "southwest" : 
               {
                  "lat" : 48.1830369,
                  "lng" : 22.611173
               }
            },
            "location" : 
            {
               "lat" : 48.1971868,
               "lng" : 22.6370954
            },
            "location_type" : "APPROXIMATE",
            "viewport" : 
            {
               "northeast" : 
               {
                  "lat" : 48.22204499999999,
                  "lng" : 22.6641011
               },
               "southwest" : 
               {
                  "lat" : 48.1830369,
                  "lng" : 22.611173
               }
            }
         },
         "partial_match" : true,
         "place_id" : "ChIJbc2BeNRaOEcRt2EBkKfEE6w",
         "types" : 
         [
            "locality",
            "political"
         ]
      }
   ],
   "status" : "OK"
}