{
   "results" : 
   [
      {
         "address_components" : 
         [
            {
               "long_name" : "Яворівський район",
               "short_name" : "Яворівський район",
               "types" : 
               [
                  "administrative_area_level_2",
                  "political"
               ]
            },
            {
               "long_name" : "Львівська область",
               "short_name" : "Львівська область",
               "types" : 
               [
                  "administrative_area_level_1",
                  "political"
               ]
            },
            {
               "long_name" : "Україна",
               "short_name" : "UA",
               "types" : 
               [
                  "country",
                  "political"
               ]
            }
         ],
         "formatted_address" : "Яворівський район, Львівська область, Україна",
         "geometry" : 
         {
            "bounds" : 
            {
               "northeast" : 
               {
                  "lat" : 50.193844,
                  "lng" : 23.9387161
               },
               "southwest" : 
               {
                  "lat" : 49.81258,
                  "lng" : 23.0927957
               }
            },
            "location" : 
            {
               "lat" : 50.015466,
               "lng" : 23.5466891
            },
            "location_type" : "APPROXIMATE",
            "viewport" : 
            {
               "northeast" : 
               {
                  "lat" : 50.193844,
                  "lng" : 23.9387161
               },
               "southwest" : 
               {
                  "lat" : 49.81258,
                  "lng" : 23.0927957
               }
            }
         },
         "partial_match" : true,
         "place_id" : "ChIJM9bvHb0-O0cRuAJVd2LB3l0",
         "types" : 
         [
            "administrative_area_level_2",
            "political"
         ]
      },
      {
         "address_components" : 
         [
            {
               "long_name" : "Буців",
               "short_name" : "Буців",
               "types" : 
               [
                  "locality",
                  "political"
               ]
            },
            {
               "long_name" : "Мостиський район",
               "short_name" : "Мостиський район",
               "types" : 
               [
                  "administrative_area_level_2",
                  "political"
               ]
            },
            {
               "long_name" : "Львівська область",
               "short_name" : "Львівська область",
               "types" : 
               [
                  "administrative_area_level_1",
                  "political"
               ]
            },
            {
               "long_name" : "Україна",
               "short_name" : "UA",
               "types" : 
               [
                  "country",
                  "political"
               ]
            },
            {
               "long_name" : "81322",
               "short_name" : "81322",
               "types" : 
               [
                  "postal_code"
               ]
            }
         ],
         "formatted_address" : "Буців, Львівська область, Україна, 81322",
         "geometry" : 
         {
            "bounds" : 
            {
               "northeast" : 
               {
                  "lat" : 49.836571,
                  "lng" : 22.993455
               },
               "southwest" : 
               {
                  "lat" : 49.818817,
                  "lng" : 22.9768009
               }
            },
            "location" : 
            {
               "lat" : 49.8274108,
               "lng" : 22.9840681
            },
            "location_type" : "APPROXIMATE",
            "viewport" : 
            {
               "northeast" : 
               {
                  "lat" : 49.836571,
                  "lng" : 22.993455
               },
               "southwest" : 
               {
                  "lat" : 49.818817,
                  "lng" : 22.9768009
               }
            }
         },
         "partial_match" : true,
         "place_id" : "ChIJ5ctU7oZwO0cR_r2Pcs4jTpU",
         "types" : 
         [
            "locality",
            "political"
         ]
      }
   ],
   "status" : "OK"
}