{
   "results" : 
   [
      {
         "address_components" : 
         [
            {
               "long_name" : "Мігово",
               "short_name" : "Мігово",
               "types" : 
               [
                  "locality",
                  "political"
               ]
            },
            {
               "long_name" : "Старосамбірський район",
               "short_name" : "Старосамбірський район",
               "types" : 
               [
                  "administrative_area_level_2",
                  "political"
               ]
            },
            {
               "long_name" : "Львівська область",
               "short_name" : "Львівська область",
               "types" : 
               [
                  "administrative_area_level_1",
                  "political"
               ]
            },
            {
               "long_name" : "Україна",
               "short_name" : "UA",
               "types" : 
               [
                  "country",
                  "political"
               ]
            },
            {
               "long_name" : "82045",
               "short_name" : "82045",
               "types" : 
               [
                  "postal_code"
               ]
            }
         ],
         "formatted_address" : "Мігово, Львівська область, Україна, 82045",
         "geometry" : 
         {
            "bounds" : 
            {
               "northeast" : 
               {
                  "lat" : 49.5586589,
                  "lng" : 22.7292439
               },
               "southwest" : 
               {
                  "lat" : 49.5430321,
                  "lng" : 22.6834541
               }
            },
            "location" : 
            {
               "lat" : 49.5522774,
               "lng" : 22.7122802
            },
            "location_type" : "APPROXIMATE",
            "viewport" : 
            {
               "northeast" : 
               {
                  "lat" : 49.5586589,
                  "lng" : 22.7292439
               },
               "southwest" : 
               {
                  "lat" : 49.5430321,
                  "lng" : 22.6834541
               }
            }
         },
         "partial_match" : true,
         "place_id" : "ChIJvTQCksmPO0cRyrKLSPb4htc",
         "types" : 
         [
            "locality",
            "political"
         ]
      },
      {
         "address_components" : 
         [
            {
               "long_name" : "Самбірський район",
               "short_name" : "Самбірський район",
               "types" : 
               [
                  "administrative_area_level_2",
                  "political"
               ]
            },
            {
               "long_name" : "Львівська область",
               "short_name" : "Львівська область",
               "types" : 
               [
                  "administrative_area_level_1",
                  "political"
               ]
            },
            {
               "long_name" : "Україна",
               "short_name" : "UA",
               "types" : 
               [
                  "country",
                  "political"
               ]
            }
         ],
         "formatted_address" : "Самбірський район, Львівська область, Україна",
         "geometry" : 
         {
            "bounds" : 
            {
               "northeast" : 
               {
                  "lat" : 49.7607029,
                  "lng" : 23.6554599
               },
               "southwest" : 
               {
                  "lat" : 49.337475,
                  "lng" : 23.039228
               }
            },
            "location" : 
            {
               "lat" : 49.578198,
               "lng" : 23.3664274
            },
            "location_type" : "APPROXIMATE",
            "viewport" : 
            {
               "northeast" : 
               {
                  "lat" : 49.7607029,
                  "lng" : 23.6554599
               },
               "southwest" : 
               {
                  "lat" : 49.337475,
                  "lng" : 23.039228
               }
            }
         },
         "partial_match" : true,
         "place_id" : "ChIJY-WFvSipO0cRIg7jX41_UbI",
         "types" : 
         [
            "administrative_area_level_2",
            "political"
         ]
      }
   ],
   "status" : "OK"
}