{
   "results" : 
   [
      {
         "address_components" : 
         [
            {
               "long_name" : "Перечин",
               "short_name" : "Перечин",
               "types" : 
               [
                  "locality",
                  "political"
               ]
            },
            {
               "long_name" : "Перечинський район",
               "short_name" : "Перечинський район",
               "types" : 
               [
                  "administrative_area_level_2",
                  "political"
               ]
            },
            {
               "long_name" : "Закарпатська область",
               "short_name" : "Закарпатська область",
               "types" : 
               [
                  "administrative_area_level_1",
                  "political"
               ]
            },
            {
               "long_name" : "Україна",
               "short_name" : "UA",
               "types" : 
               [
                  "country",
                  "political"
               ]
            }
         ],
         "formatted_address" : "Перечин, Закарпатська область, Україна",
         "geometry" : 
         {
            "bounds" : 
            {
               "northeast" : 
               {
                  "lat" : 48.7539252,
                  "lng" : 22.5144195
               },
               "southwest" : 
               {
                  "lat" : 48.7252272,
                  "lng" : 22.435069
               }
            },
            "location" : 
            {
               "lat" : 48.7359203,
               "lng" : 22.4723243
            },
            "location_type" : "APPROXIMATE",
            "viewport" : 
            {
               "northeast" : 
               {
                  "lat" : 48.7539252,
                  "lng" : 22.5144195
               },
               "southwest" : 
               {
                  "lat" : 48.7252272,
                  "lng" : 22.435069
               }
            }
         },
         "partial_match" : true,
         "place_id" : "ChIJDQKKqwsTOUcRfG7GBA548kw",
         "types" : 
         [
            "locality",
            "political"
         ]
      },
      {
         "address_components" : 
         [
            {
               "long_name" : "Самбірський район",
               "short_name" : "Самбірський район",
               "types" : 
               [
                  "administrative_area_level_2",
                  "political"
               ]
            },
            {
               "long_name" : "Львівська область",
               "short_name" : "Львівська область",
               "types" : 
               [
                  "administrative_area_level_1",
                  "political"
               ]
            },
            {
               "long_name" : "Україна",
               "short_name" : "UA",
               "types" : 
               [
                  "country",
                  "political"
               ]
            }
         ],
         "formatted_address" : "Самбірський район, Львівська область, Україна",
         "geometry" : 
         {
            "bounds" : 
            {
               "northeast" : 
               {
                  "lat" : 49.7607029,
                  "lng" : 23.6554599
               },
               "southwest" : 
               {
                  "lat" : 49.337475,
                  "lng" : 23.039228
               }
            },
            "location" : 
            {
               "lat" : 49.578198,
               "lng" : 23.3664274
            },
            "location_type" : "APPROXIMATE",
            "viewport" : 
            {
               "northeast" : 
               {
                  "lat" : 49.7607029,
                  "lng" : 23.6554599
               },
               "southwest" : 
               {
                  "lat" : 49.337475,
                  "lng" : 23.039228
               }
            }
         },
         "partial_match" : true,
         "place_id" : "ChIJY-WFvSipO0cRIg7jX41_UbI",
         "types" : 
         [
            "administrative_area_level_2",
            "political"
         ]
      }
   ],
   "status" : "OK"
}