{
   "results" : 
   [
      {
         "address_components" : 
         [
            {
               "long_name" : "Балтський район",
               "short_name" : "Балтський район",
               "types" : 
               [
                  "administrative_area_level_2",
                  "political"
               ]
            },
            {
               "long_name" : "Одеська область",
               "short_name" : "Одеська область",
               "types" : 
               [
                  "administrative_area_level_1",
                  "political"
               ]
            },
            {
               "long_name" : "Україна",
               "short_name" : "UA",
               "types" : 
               [
                  "country",
                  "political"
               ]
            }
         ],
         "formatted_address" : "Балтський район, Одеська область, Україна",
         "geometry" : 
         {
            "bounds" : 
            {
               "northeast" : 
               {
                  "lat" : 48.212535,
                  "lng" : 29.9410241
               },
               "southwest" : 
               {
                  "lat" : 47.797797,
                  "lng" : 29.2990389
               }
            },
            "location" : 
            {
               "lat" : 47.9719585,
               "lng" : 29.6778556
            },
            "location_type" : "APPROXIMATE",
            "viewport" : 
            {
               "northeast" : 
               {
                  "lat" : 48.212535,
                  "lng" : 29.9410241
               },
               "southwest" : 
               {
                  "lat" : 47.797797,
                  "lng" : 29.2990389
               }
            }
         },
         "partial_match" : true,
         "place_id" : "ChIJhdFDjcYtzEARypD1ksD_FpU",
         "types" : 
         [
            "administrative_area_level_2",
            "political"
         ]
      },
      {
         "address_components" : 
         [
            {
               "long_name" : "Карпівка",
               "short_name" : "Карпівка",
               "types" : 
               [
                  "locality",
                  "political"
               ]
            },
            {
               "long_name" : "Широківський район",
               "short_name" : "Широківський район",
               "types" : 
               [
                  "administrative_area_level_2",
                  "political"
               ]
            },
            {
               "long_name" : "Дніпропетровська область",
               "short_name" : "Дніпропетровська область",
               "types" : 
               [
                  "administrative_area_level_1",
                  "political"
               ]
            },
            {
               "long_name" : "Україна",
               "short_name" : "UA",
               "types" : 
               [
                  "country",
                  "political"
               ]
            },
            {
               "long_name" : "53742",
               "short_name" : "53742",
               "types" : 
               [
                  "postal_code"
               ]
            }
         ],
         "formatted_address" : "Карпівка, Дніпропетровська область, Україна, 53742",
         "geometry" : 
         {
            "bounds" : 
            {
               "northeast" : 
               {
                  "lat" : 47.671968,
                  "lng" : 33.134782
               },
               "southwest" : 
               {
                  "lat" : 47.65988410000001,
                  "lng" : 33.1062908
               }
            },
            "location" : 
            {
               "lat" : 47.6660418,
               "lng" : 33.1188472
            },
            "location_type" : "APPROXIMATE",
            "viewport" : 
            {
               "northeast" : 
               {
                  "lat" : 47.671968,
                  "lng" : 33.134782
               },
               "southwest" : 
               {
                  "lat" : 47.65988410000001,
                  "lng" : 33.1062908
               }
            }
         },
         "partial_match" : true,
         "place_id" : "ChIJs1ufpqvVxEAR8ozBlIQETnQ",
         "types" : 
         [
            "locality",
            "political"
         ]
      }
   ],
   "status" : "OK"
}