{
   "results" : 
   [
      {
         "address_components" : 
         [
            {
               "long_name" : "Болградський район",
               "short_name" : "Болградський район",
               "types" : 
               [
                  "administrative_area_level_2",
                  "political"
               ]
            },
            {
               "long_name" : "Одеська область",
               "short_name" : "Одеська область",
               "types" : 
               [
                  "administrative_area_level_1",
                  "political"
               ]
            },
            {
               "long_name" : "Україна",
               "short_name" : "UA",
               "types" : 
               [
                  "country",
                  "political"
               ]
            }
         ],
         "formatted_address" : "Болградський район, Одеська область, Україна",
         "geometry" : 
         {
            "bounds" : 
            {
               "northeast" : 
               {
                  "lat" : 46.00345919999999,
                  "lng" : 29.0752861
               },
               "southwest" : 
               {
                  "lat" : 45.466108,
                  "lng" : 28.4806966
               }
            },
            "location" : 
            {
               "lat" : 45.7290886,
               "lng" : 28.7779353
            },
            "location_type" : "APPROXIMATE",
            "viewport" : 
            {
               "northeast" : 
               {
                  "lat" : 46.00345919999999,
                  "lng" : 29.0752861
               },
               "southwest" : 
               {
                  "lat" : 45.466108,
                  "lng" : 28.4806966
               }
            }
         },
         "partial_match" : true,
         "place_id" : "ChIJ-YeN5wOlt0ARRFZgXOIII9Q",
         "types" : 
         [
            "administrative_area_level_2",
            "political"
         ]
      },
      {
         "address_components" : 
         [
            {
               "long_name" : "Ламбрівка",
               "short_name" : "Ламбрівка",
               "types" : 
               [
                  "locality",
                  "political"
               ]
            },
            {
               "long_name" : "Тарутинський район",
               "short_name" : "Тарутинський район",
               "types" : 
               [
                  "administrative_area_level_2",
                  "political"
               ]
            },
            {
               "long_name" : "Одеська область",
               "short_name" : "Одеська область",
               "types" : 
               [
                  "administrative_area_level_1",
                  "political"
               ]
            },
            {
               "long_name" : "Україна",
               "short_name" : "UA",
               "types" : 
               [
                  "country",
                  "political"
               ]
            },
            {
               "long_name" : "68534",
               "short_name" : "68534",
               "types" : 
               [
                  "postal_code"
               ]
            }
         ],
         "formatted_address" : "Ламбрівка, Одеська область, Україна, 68534",
         "geometry" : 
         {
            "bounds" : 
            {
               "northeast" : 
               {
                  "lat" : 46.332452,
                  "lng" : 29.2976789
               },
               "southwest" : 
               {
                  "lat" : 46.31070400000001,
                  "lng" : 29.282477
               }
            },
            "location" : 
            {
               "lat" : 46.3228002,
               "lng" : 29.2896079
            },
            "location_type" : "APPROXIMATE",
            "viewport" : 
            {
               "northeast" : 
               {
                  "lat" : 46.332452,
                  "lng" : 29.2976789
               },
               "southwest" : 
               {
                  "lat" : 46.31070400000001,
                  "lng" : 29.282477
               }
            }
         },
         "partial_match" : true,
         "place_id" : "ChIJUUUagbExyEARQGwBeYsQsF8",
         "types" : 
         [
            "locality",
            "political"
         ]
      }
   ],
   "status" : "OK"
}