{
   "results" : 
   [
      {
         "address_components" : 
         [
            {
               "long_name" : "Федосіївка",
               "short_name" : "Федосіївка",
               "types" : 
               [
                  "locality",
                  "political"
               ]
            },
            {
               "long_name" : "Окнянський район",
               "short_name" : "Окнянський район",
               "types" : 
               [
                  "administrative_area_level_2",
                  "political"
               ]
            },
            {
               "long_name" : "Одеська область",
               "short_name" : "Одеська область",
               "types" : 
               [
                  "administrative_area_level_1",
                  "political"
               ]
            },
            {
               "long_name" : "Україна",
               "short_name" : "UA",
               "types" : 
               [
                  "country",
                  "political"
               ]
            },
            {
               "long_name" : "67920",
               "short_name" : "67920",
               "types" : 
               [
                  "postal_code"
               ]
            }
         ],
         "formatted_address" : "Федосіївка, Одеська область, Україна, 67920",
         "geometry" : 
         {
            "bounds" : 
            {
               "northeast" : 
               {
                  "lat" : 47.563283,
                  "lng" : 29.1968071
               },
               "southwest" : 
               {
                  "lat" : 47.516336,
                  "lng" : 29.173978
               }
            },
            "location" : 
            {
               "lat" : 47.5381732,
               "lng" : 29.1838707
            },
            "location_type" : "APPROXIMATE",
            "viewport" : 
            {
               "northeast" : 
               {
                  "lat" : 47.563283,
                  "lng" : 29.1968071
               },
               "southwest" : 
               {
                  "lat" : 47.516336,
                  "lng" : 29.173978
               }
            }
         },
         "place_id" : "ChIJA0PdBDIHzEARLwzcyuXn1iw",
         "types" : 
         [
            "locality",
            "political"
         ]
      },
      {
         "address_components" : 
         [
            {
               "long_name" : "Федосіївка",
               "short_name" : "Федосіївка",
               "types" : 
               [
                  "locality",
                  "political"
               ]
            },
            {
               "long_name" : "Захарівський район",
               "short_name" : "Захарівський район",
               "types" : 
               [
                  "administrative_area_level_2",
                  "political"
               ]
            },
            {
               "long_name" : "Одеська область",
               "short_name" : "Одеська область",
               "types" : 
               [
                  "administrative_area_level_1",
                  "political"
               ]
            },
            {
               "long_name" : "Україна",
               "short_name" : "UA",
               "types" : 
               [
                  "country",
                  "political"
               ]
            },
            {
               "long_name" : "66721",
               "short_name" : "66721",
               "types" : 
               [
                  "postal_code"
               ]
            }
         ],
         "formatted_address" : "Федосіївка, Одеська область, Україна, 66721",
         "geometry" : 
         {
            "bounds" : 
            {
               "northeast" : 
               {
                  "lat" : 47.527172,
                  "lng" : 29.780506
               },
               "southwest" : 
               {
                  "lat" : 47.51622190000001,
                  "lng" : 29.767752
               }
            },
            "location" : 
            {
               "lat" : 47.521856,
               "lng" : 29.77549509999999
            },
            "location_type" : "APPROXIMATE",
            "viewport" : 
            {
               "northeast" : 
               {
                  "lat" : 47.527172,
                  "lng" : 29.780506
               },
               "southwest" : 
               {
                  "lat" : 47.51622190000001,
                  "lng" : 29.767752
               }
            }
         },
         "place_id" : "ChIJPXtwsOe5zkARhIj05NlhOLI",
         "types" : 
         [
            "locality",
            "political"
         ]
      }
   ],
   "status" : "OK"
}