{
   "results" : 
   [
      {
         "address_components" : 
         [
            {
               "long_name" : "Роздільнянський район",
               "short_name" : "Роздільнянський район",
               "types" : 
               [
                  "administrative_area_level_2",
                  "political"
               ]
            },
            {
               "long_name" : "Одеська область",
               "short_name" : "Одеська область",
               "types" : 
               [
                  "administrative_area_level_1",
                  "political"
               ]
            },
            {
               "long_name" : "Україна",
               "short_name" : "UA",
               "types" : 
               [
                  "country",
                  "political"
               ]
            }
         ],
         "formatted_address" : "Роздільнянський район, Одеська область, Україна",
         "geometry" : 
         {
            "bounds" : 
            {
               "northeast" : 
               {
                  "lat" : 46.990412,
                  "lng" : 30.530109
               },
               "southwest" : 
               {
                  "lat" : 46.615347,
                  "lng" : 29.833626
               }
            },
            "location" : 
            {
               "lat" : 46.8414095,
               "lng" : 30.1756639
            },
            "location_type" : "APPROXIMATE",
            "viewport" : 
            {
               "northeast" : 
               {
                  "lat" : 46.990412,
                  "lng" : 30.530109
               },
               "southwest" : 
               {
                  "lat" : 46.615347,
                  "lng" : 29.833626
               }
            }
         },
         "partial_match" : true,
         "place_id" : "ChIJg5xTIlrryEAR7A2kyucBGkw",
         "types" : 
         [
            "administrative_area_level_2",
            "political"
         ]
      },
      {
         "address_components" : 
         [
            {
               "long_name" : "Мигаї",
               "short_name" : "Мигаї",
               "types" : 
               [
                  "locality",
                  "political"
               ]
            },
            {
               "long_name" : "Великомихайлівський район",
               "short_name" : "Великомихайлівський район",
               "types" : 
               [
                  "administrative_area_level_2",
                  "political"
               ]
            },
            {
               "long_name" : "Одеська область",
               "short_name" : "Одеська область",
               "types" : 
               [
                  "administrative_area_level_1",
                  "political"
               ]
            },
            {
               "long_name" : "Україна",
               "short_name" : "UA",
               "types" : 
               [
                  "country",
                  "political"
               ]
            },
            {
               "long_name" : "67151",
               "short_name" : "67151",
               "types" : 
               [
                  "postal_code"
               ]
            }
         ],
         "formatted_address" : "Мигаї, Одеська область, Україна, 67151",
         "geometry" : 
         {
            "bounds" : 
            {
               "northeast" : 
               {
                  "lat" : 47.02030999999999,
                  "lng" : 30.0240361
               },
               "southwest" : 
               {
                  "lat" : 46.994153,
                  "lng" : 29.998736
               }
            },
            "location" : 
            {
               "lat" : 47.0109212,
               "lng" : 30.0082047
            },
            "location_type" : "APPROXIMATE",
            "viewport" : 
            {
               "northeast" : 
               {
                  "lat" : 47.02030999999999,
                  "lng" : 30.0240361
               },
               "southwest" : 
               {
                  "lat" : 46.994153,
                  "lng" : 29.998736
               }
            }
         },
         "partial_match" : true,
         "place_id" : "ChIJCz-4nK_eyEAR6YL7KU5g1vg",
         "types" : 
         [
            "locality",
            "political"
         ]
      }
   ],
   "status" : "OK"
}