{
   "results" : 
   [
      {
         "address_components" : 
         [
            {
               "long_name" : "Ренійський район",
               "short_name" : "Ренійський район",
               "types" : 
               [
                  "administrative_area_level_2",
                  "political"
               ]
            },
            {
               "long_name" : "Одеська область",
               "short_name" : "Одеська область",
               "types" : 
               [
                  "administrative_area_level_1",
                  "political"
               ]
            },
            {
               "long_name" : "Україна",
               "short_name" : "UA",
               "types" : 
               [
                  "country",
                  "political"
               ]
            }
         ],
         "formatted_address" : "Ренійський район, Одеська область, Україна",
         "geometry" : 
         {
            "bounds" : 
            {
               "northeast" : 
               {
                  "lat" : 45.580025,
                  "lng" : 28.745349
               },
               "southwest" : 
               {
                  "lat" : 45.2430443,
                  "lng" : 28.2139431
               }
            },
            "location" : 
            {
               "lat" : 45.3850074,
               "lng" : 28.5363782
            },
            "location_type" : "APPROXIMATE",
            "viewport" : 
            {
               "northeast" : 
               {
                  "lat" : 45.580025,
                  "lng" : 28.745349
               },
               "southwest" : 
               {
                  "lat" : 45.2430443,
                  "lng" : 28.2139431
               }
            }
         },
         "partial_match" : true,
         "place_id" : "ChIJRxt8P5AWt0ARrP0ABivxPiE",
         "types" : 
         [
            "administrative_area_level_2",
            "political"
         ]
      },
      {
         "address_components" : 
         [
            {
               "long_name" : "Лісне",
               "short_name" : "Лісне",
               "types" : 
               [
                  "locality",
                  "political"
               ]
            },
            {
               "long_name" : "Києво-Святошинський район",
               "short_name" : "Києво-Святошинський район",
               "types" : 
               [
                  "administrative_area_level_2",
                  "political"
               ]
            },
            {
               "long_name" : "Київська область",
               "short_name" : "Київська область",
               "types" : 
               [
                  "administrative_area_level_1",
                  "political"
               ]
            },
            {
               "long_name" : "Україна",
               "short_name" : "UA",
               "types" : 
               [
                  "country",
                  "political"
               ]
            }
         ],
         "formatted_address" : "Лісне, Київська область, Україна",
         "geometry" : 
         {
            "bounds" : 
            {
               "northeast" : 
               {
                  "lat" : 50.4514314,
                  "lng" : 30.1201023
               },
               "southwest" : 
               {
                  "lat" : 50.436516,
                  "lng" : 30.092926
               }
            },
            "location" : 
            {
               "lat" : 50.4453536,
               "lng" : 30.105665
            },
            "location_type" : "APPROXIMATE",
            "viewport" : 
            {
               "northeast" : 
               {
                  "lat" : 50.4514314,
                  "lng" : 30.1201023
               },
               "southwest" : 
               {
                  "lat" : 50.436516,
                  "lng" : 30.092926
               }
            }
         },
         "partial_match" : true,
         "place_id" : "ChIJFRHwt2w2K0cRSFFPqXz9YFI",
         "types" : 
         [
            "locality",
            "political"
         ]
      }
   ],
   "status" : "OK"
}