{
   "results" : 
   [
      {
         "address_components" : 
         [
            {
               "long_name" : "Березівський район",
               "short_name" : "Березівський район",
               "types" : 
               [
                  "administrative_area_level_2",
                  "political"
               ]
            },
            {
               "long_name" : "Одеська область",
               "short_name" : "Одеська область",
               "types" : 
               [
                  "administrative_area_level_1",
                  "political"
               ]
            },
            {
               "long_name" : "Україна",
               "short_name" : "UA",
               "types" : 
               [
                  "country",
                  "political"
               ]
            }
         ],
         "formatted_address" : "Березівський район, Одеська область, Україна",
         "geometry" : 
         {
            "bounds" : 
            {
               "northeast" : 
               {
                  "lat" : 47.4259829,
                  "lng" : 31.305305
               },
               "southwest" : 
               {
                  "lat" : 46.963333,
                  "lng" : 30.46346399999999
               }
            },
            "location" : 
            {
               "lat" : 47.15931699999999,
               "lng" : 30.8401283
            },
            "location_type" : "APPROXIMATE",
            "viewport" : 
            {
               "northeast" : 
               {
                  "lat" : 47.4259829,
                  "lng" : 31.305305
               },
               "southwest" : 
               {
                  "lat" : 46.963333,
                  "lng" : 30.46346399999999
               }
            }
         },
         "partial_match" : true,
         "place_id" : "ChIJ-_LvR39Fz0AR6uMxiFruS1U",
         "types" : 
         [
            "administrative_area_level_2",
            "political"
         ]
      },
      {
         "address_components" : 
         [
            {
               "long_name" : "Подільськ",
               "short_name" : "Подільськ",
               "types" : 
               [
                  "locality",
                  "political"
               ]
            },
            {
               "long_name" : "Котовська міськрада",
               "short_name" : "Котовська міськрада",
               "types" : 
               [
                  "administrative_area_level_3",
                  "political"
               ]
            },
            {
               "long_name" : "Одеська область",
               "short_name" : "Одеська область",
               "types" : 
               [
                  "administrative_area_level_1",
                  "political"
               ]
            },
            {
               "long_name" : "Україна",
               "short_name" : "UA",
               "types" : 
               [
                  "country",
                  "political"
               ]
            },
            {
               "long_name" : "66300",
               "short_name" : "66300",
               "types" : 
               [
                  "postal_code"
               ]
            }
         ],
         "formatted_address" : "Подільськ, Одеська область, Україна, 66300",
         "geometry" : 
         {
            "bounds" : 
            {
               "northeast" : 
               {
                  "lat" : 47.775993,
                  "lng" : 29.566206
               },
               "southwest" : 
               {
                  "lat" : 47.707921,
                  "lng" : 29.504038
               }
            },
            "location" : 
            {
               "lat" : 47.7585809,
               "lng" : 29.5339155
            },
            "location_type" : "APPROXIMATE",
            "viewport" : 
            {
               "northeast" : 
               {
                  "lat" : 47.775993,
                  "lng" : 29.566206
               },
               "southwest" : 
               {
                  "lat" : 47.707921,
                  "lng" : 29.504038
               }
            }
         },
         "partial_match" : true,
         "place_id" : "ChIJh_DM1h4gzEARE_id-25M9ik",
         "types" : 
         [
            "locality",
            "political"
         ]
      }
   ],
   "status" : "OK"
}