{
   "results" : 
   [
      {
         "address_components" : 
         [
            {
               "long_name" : "Болградський район",
               "short_name" : "Болградський район",
               "types" : 
               [
                  "administrative_area_level_2",
                  "political"
               ]
            },
            {
               "long_name" : "Одеська область",
               "short_name" : "Одеська область",
               "types" : 
               [
                  "administrative_area_level_1",
                  "political"
               ]
            },
            {
               "long_name" : "Україна",
               "short_name" : "UA",
               "types" : 
               [
                  "country",
                  "political"
               ]
            }
         ],
         "formatted_address" : "Болградський район, Одеська область, Україна",
         "geometry" : 
         {
            "bounds" : 
            {
               "northeast" : 
               {
                  "lat" : 46.00345919999999,
                  "lng" : 29.0752861
               },
               "southwest" : 
               {
                  "lat" : 45.466108,
                  "lng" : 28.4806966
               }
            },
            "location" : 
            {
               "lat" : 45.7290886,
               "lng" : 28.7779353
            },
            "location_type" : "APPROXIMATE",
            "viewport" : 
            {
               "northeast" : 
               {
                  "lat" : 46.00345919999999,
                  "lng" : 29.0752861
               },
               "southwest" : 
               {
                  "lat" : 45.466108,
                  "lng" : 28.4806966
               }
            }
         },
         "partial_match" : true,
         "place_id" : "ChIJ-YeN5wOlt0ARRFZgXOIII9Q",
         "types" : 
         [
            "administrative_area_level_2",
            "political"
         ]
      },
      {
         "address_components" : 
         [
            {
               "long_name" : "Буджак",
               "short_name" : "Буджак",
               "types" : 
               [
                  "locality",
                  "political"
               ]
            },
            {
               "long_name" : "Тарутинський район",
               "short_name" : "Тарутинський район",
               "types" : 
               [
                  "administrative_area_level_2",
                  "political"
               ]
            },
            {
               "long_name" : "Одеська область",
               "short_name" : "Одеська область",
               "types" : 
               [
                  "administrative_area_level_1",
                  "political"
               ]
            },
            {
               "long_name" : "Україна",
               "short_name" : "UA",
               "types" : 
               [
                  "country",
                  "political"
               ]
            },
            {
               "long_name" : "68540",
               "short_name" : "68540",
               "types" : 
               [
                  "postal_code"
               ]
            }
         ],
         "formatted_address" : "Буджак, Одеська область, Україна, 68540",
         "geometry" : 
         {
            "bounds" : 
            {
               "northeast" : 
               {
                  "lat" : 46.3124079,
                  "lng" : 29.2682961
               },
               "southwest" : 
               {
                  "lat" : 46.2888601,
                  "lng" : 29.2175179
               }
            },
            "location" : 
            {
               "lat" : 46.30393249999999,
               "lng" : 29.2402612
            },
            "location_type" : "APPROXIMATE",
            "viewport" : 
            {
               "northeast" : 
               {
                  "lat" : 46.3124079,
                  "lng" : 29.2682961
               },
               "southwest" : 
               {
                  "lat" : 46.2888601,
                  "lng" : 29.2175179
               }
            }
         },
         "partial_match" : true,
         "place_id" : "ChIJ7bTcxyYuyEARBnWZrgqwLbE",
         "types" : 
         [
            "locality",
            "political"
         ]
      }
   ],
   "status" : "OK"
}