{
   "results" : 
   [
      {
         "address_components" : 
         [
            {
               "long_name" : "Розівка",
               "short_name" : "Розівка",
               "types" : 
               [
                  "locality",
                  "political"
               ]
            },
            {
               "long_name" : "Окнянський район",
               "short_name" : "Окнянський район",
               "types" : 
               [
                  "administrative_area_level_2",
                  "political"
               ]
            },
            {
               "long_name" : "Одеська область",
               "short_name" : "Одеська область",
               "types" : 
               [
                  "administrative_area_level_1",
                  "political"
               ]
            },
            {
               "long_name" : "Україна",
               "short_name" : "UA",
               "types" : 
               [
                  "country",
                  "political"
               ]
            },
            {
               "long_name" : "67934",
               "short_name" : "67934",
               "types" : 
               [
                  "postal_code"
               ]
            }
         ],
         "formatted_address" : "Розівка, Одеська область, Україна, 67934",
         "geometry" : 
         {
            "bounds" : 
            {
               "northeast" : 
               {
                  "lat" : 47.463681,
                  "lng" : 29.34565109999999
               },
               "southwest" : 
               {
                  "lat" : 47.4450811,
                  "lng" : 29.317578
               }
            },
            "location" : 
            {
               "lat" : 47.4531479,
               "lng" : 29.3326456
            },
            "location_type" : "APPROXIMATE",
            "viewport" : 
            {
               "northeast" : 
               {
                  "lat" : 47.463681,
                  "lng" : 29.34565109999999
               },
               "southwest" : 
               {
                  "lat" : 47.4450811,
                  "lng" : 29.317578
               }
            }
         },
         "place_id" : "ChIJaWTE6MVUyUARtNVKgdEmP_0",
         "types" : 
         [
            "locality",
            "political"
         ]
      },
      {
         "address_components" : 
         [
            {
               "long_name" : "Розівка",
               "short_name" : "Розівка",
               "types" : 
               [
                  "locality",
                  "political"
               ]
            },
            {
               "long_name" : "Саратський район",
               "short_name" : "Саратський район",
               "types" : 
               [
                  "administrative_area_level_2",
                  "political"
               ]
            },
            {
               "long_name" : "Одеська область",
               "short_name" : "Одеська область",
               "types" : 
               [
                  "administrative_area_level_1",
                  "political"
               ]
            },
            {
               "long_name" : "Україна",
               "short_name" : "UA",
               "types" : 
               [
                  "country",
                  "political"
               ]
            },
            {
               "long_name" : "68262",
               "short_name" : "68262",
               "types" : 
               [
                  "postal_code"
               ]
            }
         ],
         "formatted_address" : "Розівка, Одеська область, Україна, 68262",
         "geometry" : 
         {
            "bounds" : 
            {
               "northeast" : 
               {
                  "lat" : 46.050386,
                  "lng" : 29.9060281
               },
               "southwest" : 
               {
                  "lat" : 46.041488,
                  "lng" : 29.8887369
               }
            },
            "location" : 
            {
               "lat" : 46.0460187,
               "lng" : 29.8967954
            },
            "location_type" : "APPROXIMATE",
            "viewport" : 
            {
               "northeast" : 
               {
                  "lat" : 46.050386,
                  "lng" : 29.9060281
               },
               "southwest" : 
               {
                  "lat" : 46.041488,
                  "lng" : 29.8887369
               }
            }
         },
         "place_id" : "ChIJtcrq7Pn9x0ARmEX3xnKu4nk",
         "types" : 
         [
            "locality",
            "political"
         ]
      }
   ],
   "status" : "OK"
}