{
   "results" : 
   [
      {
         "address_components" : 
         [
            {
               "long_name" : "Нове",
               "short_name" : "Нове",
               "types" : 
               [
                  "locality",
                  "political"
               ]
            },
            {
               "long_name" : "Роздільнянський район",
               "short_name" : "Роздільнянський район",
               "types" : 
               [
                  "administrative_area_level_2",
                  "political"
               ]
            },
            {
               "long_name" : "Одеська область",
               "short_name" : "Одеська область",
               "types" : 
               [
                  "administrative_area_level_1",
                  "political"
               ]
            },
            {
               "long_name" : "Україна",
               "short_name" : "UA",
               "types" : 
               [
                  "country",
                  "political"
               ]
            },
            {
               "long_name" : "67462",
               "short_name" : "67462",
               "types" : 
               [
                  "postal_code"
               ]
            }
         ],
         "formatted_address" : "Нове, Одеська область, Україна, 67462",
         "geometry" : 
         {
            "bounds" : 
            {
               "northeast" : 
               {
                  "lat" : 46.892008,
                  "lng" : 29.874813
               },
               "southwest" : 
               {
                  "lat" : 46.885,
                  "lng" : 29.865529
               }
            },
            "location" : 
            {
               "lat" : 46.8888467,
               "lng" : 29.8706085
            },
            "location_type" : "APPROXIMATE",
            "viewport" : 
            {
               "northeast" : 
               {
                  "lat" : 46.892008,
                  "lng" : 29.874813
               },
               "southwest" : 
               {
                  "lat" : 46.885,
                  "lng" : 29.865529
               }
            }
         },
         "place_id" : "ChIJ5zWEDVXhyEARWJDMHoaxTWI",
         "types" : 
         [
            "locality",
            "political"
         ]
      },
      {
         "address_components" : 
         [
            {
               "long_name" : "Нове",
               "short_name" : "Нове",
               "types" : 
               [
                  "locality",
                  "political"
               ]
            },
            {
               "long_name" : "Роздільнянський район",
               "short_name" : "Роздільнянський район",
               "types" : 
               [
                  "administrative_area_level_2",
                  "political"
               ]
            },
            {
               "long_name" : "Одеська область",
               "short_name" : "Одеська область",
               "types" : 
               [
                  "administrative_area_level_1",
                  "political"
               ]
            },
            {
               "long_name" : "Україна",
               "short_name" : "UA",
               "types" : 
               [
                  "country",
                  "political"
               ]
            },
            {
               "long_name" : "67462",
               "short_name" : "67462",
               "types" : 
               [
                  "postal_code"
               ]
            }
         ],
         "formatted_address" : "Нове, Одеська область, Україна, 67462",
         "geometry" : 
         {
            "bounds" : 
            {
               "northeast" : 
               {
                  "lat" : 46.6488449,
                  "lng" : 30.1293951
               },
               "southwest" : 
               {
                  "lat" : 46.637714,
                  "lng" : 30.124661
               }
            },
            "location" : 
            {
               "lat" : 46.6438765,
               "lng" : 30.127314
            },
            "location_type" : "APPROXIMATE",
            "viewport" : 
            {
               "northeast" : 
               {
                  "lat" : 46.6488449,
                  "lng" : 30.1293951
               },
               "southwest" : 
               {
                  "lat" : 46.637714,
                  "lng" : 30.124661
               }
            }
         },
         "place_id" : "ChIJU12LffWLyEARFMXKHEPisXI",
         "types" : 
         [
            "locality",
            "political"
         ]
      }
   ],
   "status" : "OK"
}