{
   "results" : 
   [
      {
         "address_components" : 
         [
            {
               "long_name" : "Сарненський район",
               "short_name" : "Сарненський район",
               "types" : 
               [
                  "administrative_area_level_2",
                  "political"
               ]
            },
            {
               "long_name" : "Рівненська область",
               "short_name" : "Рівненська область",
               "types" : 
               [
                  "administrative_area_level_1",
                  "political"
               ]
            },
            {
               "long_name" : "Україна",
               "short_name" : "UA",
               "types" : 
               [
                  "country",
                  "political"
               ]
            }
         ],
         "formatted_address" : "Сарненський район, Рівненська область, Україна",
         "geometry" : 
         {
            "bounds" : 
            {
               "northeast" : 
               {
                  "lat" : 51.529086,
                  "lng" : 27.0874719
               },
               "southwest" : 
               {
                  "lat" : 51.026294,
                  "lng" : 26.0815509
               }
            },
            "location" : 
            {
               "lat" : 51.2828982,
               "lng" : 26.6970732
            },
            "location_type" : "APPROXIMATE",
            "viewport" : 
            {
               "northeast" : 
               {
                  "lat" : 51.529086,
                  "lng" : 27.0874719
               },
               "southwest" : 
               {
                  "lat" : 51.026294,
                  "lng" : 26.0815509
               }
            }
         },
         "partial_match" : true,
         "place_id" : "ChIJ3UIIJEOjKEcRvAmeDKWaWPw",
         "types" : 
         [
            "administrative_area_level_2",
            "political"
         ]
      },
      {
         "address_components" : 
         [
            {
               "long_name" : "Великі Озера",
               "short_name" : "Великі Озера",
               "types" : 
               [
                  "locality",
                  "political"
               ]
            },
            {
               "long_name" : "Дубровицький район",
               "short_name" : "Дубровицький район",
               "types" : 
               [
                  "administrative_area_level_2",
                  "political"
               ]
            },
            {
               "long_name" : "Рівненська область",
               "short_name" : "Рівненська область",
               "types" : 
               [
                  "administrative_area_level_1",
                  "political"
               ]
            },
            {
               "long_name" : "Україна",
               "short_name" : "UA",
               "types" : 
               [
                  "country",
                  "political"
               ]
            },
            {
               "long_name" : "34146",
               "short_name" : "34146",
               "types" : 
               [
                  "postal_code"
               ]
            }
         ],
         "formatted_address" : "Великі Озера, Рівненська область, Україна, 34146",
         "geometry" : 
         {
            "bounds" : 
            {
               "northeast" : 
               {
                  "lat" : 51.6282,
                  "lng" : 26.982375
               },
               "southwest" : 
               {
                  "lat" : 51.5083479,
                  "lng" : 26.7862859
               }
            },
            "location" : 
            {
               "lat" : 51.56214110000001,
               "lng" : 26.9061796
            },
            "location_type" : "APPROXIMATE",
            "viewport" : 
            {
               "northeast" : 
               {
                  "lat" : 51.6282,
                  "lng" : 26.982375
               },
               "southwest" : 
               {
                  "lat" : 51.5083479,
                  "lng" : 26.7862859
               }
            }
         },
         "partial_match" : true,
         "place_id" : "ChIJwxfRpxOGKEcRjEwgtMZT7o8",
         "types" : 
         [
            "locality",
            "political"
         ]
      }
   ],
   "status" : "OK"
}