{
   "results" : 
   [
      {
         "address_components" : 
         [
            {
               "long_name" : "Шосткинський район",
               "short_name" : "Шосткинський район",
               "types" : 
               [
                  "administrative_area_level_2",
                  "political"
               ]
            },
            {
               "long_name" : "Сумська область",
               "short_name" : "Сумська область",
               "types" : 
               [
                  "administrative_area_level_1",
                  "political"
               ]
            },
            {
               "long_name" : "Україна",
               "short_name" : "UA",
               "types" : 
               [
                  "country",
                  "political"
               ]
            }
         ],
         "formatted_address" : "Шосткинський район, Сумська область, Україна",
         "geometry" : 
         {
            "bounds" : 
            {
               "northeast" : 
               {
                  "lat" : 52.152964,
                  "lng" : 33.7589659
               },
               "southwest" : 
               {
                  "lat" : 51.655972,
                  "lng" : 33.0781822
               }
            },
            "location" : 
            {
               "lat" : 51.8347252,
               "lng" : 33.2901283
            },
            "location_type" : "APPROXIMATE",
            "viewport" : 
            {
               "northeast" : 
               {
                  "lat" : 52.152964,
                  "lng" : 33.7589659
               },
               "southwest" : 
               {
                  "lat" : 51.655972,
                  "lng" : 33.0781822
               }
            }
         },
         "partial_match" : true,
         "place_id" : "ChIJcTlzMOx4K0ERsK_f97UemkQ",
         "types" : 
         [
            "administrative_area_level_2",
            "political"
         ]
      },
      {
         "address_components" : 
         [
            {
               "long_name" : "Дернове",
               "short_name" : "Дернове",
               "types" : 
               [
                  "locality",
                  "political"
               ]
            },
            {
               "long_name" : "Тростянецький район",
               "short_name" : "Тростянецький район",
               "types" : 
               [
                  "administrative_area_level_2",
                  "political"
               ]
            },
            {
               "long_name" : "Сумська область",
               "short_name" : "Сумська область",
               "types" : 
               [
                  "administrative_area_level_1",
                  "political"
               ]
            },
            {
               "long_name" : "Україна",
               "short_name" : "UA",
               "types" : 
               [
                  "country",
                  "political"
               ]
            },
            {
               "long_name" : "42645",
               "short_name" : "42645",
               "types" : 
               [
                  "postal_code"
               ]
            }
         ],
         "formatted_address" : "Дернове, Сумська область, Україна, 42645",
         "geometry" : 
         {
            "bounds" : 
            {
               "northeast" : 
               {
                  "lat" : 50.517293,
                  "lng" : 35.270501
               },
               "southwest" : 
               {
                  "lat" : 50.486259,
                  "lng" : 35.231388
               }
            },
            "location" : 
            {
               "lat" : 50.5027284,
               "lng" : 35.2573914
            },
            "location_type" : "APPROXIMATE",
            "viewport" : 
            {
               "northeast" : 
               {
                  "lat" : 50.517293,
                  "lng" : 35.270501
               },
               "southwest" : 
               {
                  "lat" : 50.486259,
                  "lng" : 35.231388
               }
            }
         },
         "partial_match" : true,
         "place_id" : "ChIJNesbJz1lKEERUPaflAcT7SI",
         "types" : 
         [
            "locality",
            "political"
         ]
      }
   ],
   "status" : "OK"
}