{
   "results" : 
   [
      {
         "address_components" : 
         [
            {
               "long_name" : "Кам'яна",
               "short_name" : "Кам'яна",
               "types" : 
               [
                  "locality",
                  "political"
               ]
            },
            {
               "long_name" : "Сторожинецький район",
               "short_name" : "Сторожинецький район",
               "types" : 
               [
                  "administrative_area_level_2",
                  "political"
               ]
            },
            {
               "long_name" : "Чернівецька область",
               "short_name" : "Чернівецька область",
               "types" : 
               [
                  "administrative_area_level_1",
                  "political"
               ]
            },
            {
               "long_name" : "Україна",
               "short_name" : "UA",
               "types" : 
               [
                  "country",
                  "political"
               ]
            },
            {
               "long_name" : "59050",
               "short_name" : "59050",
               "types" : 
               [
                  "postal_code"
               ]
            }
         ],
         "formatted_address" : "Кам'яна, Чернівецька область, Україна, 59050",
         "geometry" : 
         {
            "bounds" : 
            {
               "northeast" : 
               {
                  "lat" : 48.2424991,
                  "lng" : 25.873763
               },
               "southwest" : 
               {
                  "lat" : 48.203719,
                  "lng" : 25.8145611
               }
            },
            "location" : 
            {
               "lat" : 48.2307433,
               "lng" : 25.8478134
            },
            "location_type" : "APPROXIMATE",
            "viewport" : 
            {
               "northeast" : 
               {
                  "lat" : 48.2424991,
                  "lng" : 25.873763
               },
               "southwest" : 
               {
                  "lat" : 48.203719,
                  "lng" : 25.8145611
               }
            }
         },
         "partial_match" : true,
         "place_id" : "ChIJhaaF_F0FNEcRCKL2MwEhCfw",
         "types" : 
         [
            "locality",
            "political"
         ]
      },
      {
         "address_components" : 
         [
            {
               "long_name" : "Чернівці",
               "short_name" : "Чернівці",
               "types" : 
               [
                  "locality",
                  "political"
               ]
            },
            {
               "long_name" : "Чернівецький район",
               "short_name" : "Чернівецький район",
               "types" : 
               [
                  "administrative_area_level_2",
                  "political"
               ]
            },
            {
               "long_name" : "Вінницька область",
               "short_name" : "Вінницька область",
               "types" : 
               [
                  "administrative_area_level_1",
                  "political"
               ]
            },
            {
               "long_name" : "Україна",
               "short_name" : "UA",
               "types" : 
               [
                  "country",
                  "political"
               ]
            },
            {
               "long_name" : "24100",
               "short_name" : "24100",
               "types" : 
               [
                  "postal_code"
               ]
            }
         ],
         "formatted_address" : "Чернівці, Вінницька область, Україна, 24100",
         "geometry" : 
         {
            "bounds" : 
            {
               "northeast" : 
               {
                  "lat" : 48.5569821,
                  "lng" : 28.12871
               },
               "southwest" : 
               {
                  "lat" : 48.528417,
                  "lng" : 28.0860399
               }
            },
            "location" : 
            {
               "lat" : 48.5404811,
               "lng" : 28.108548
            },
            "location_type" : "APPROXIMATE",
            "viewport" : 
            {
               "northeast" : 
               {
                  "lat" : 48.5569821,
                  "lng" : 28.12871
               },
               "southwest" : 
               {
                  "lat" : 48.528417,
                  "lng" : 28.0860399
               }
            }
         },
         "partial_match" : true,
         "place_id" : "ChIJi68wYM_UMkcRFhqhylA7tt4",
         "types" : 
         [
            "locality",
            "political"
         ]
      }
   ],
   "status" : "OK"
}