{
   "results" : 
   [
      {
         "address_components" : 
         [
            {
               "long_name" : "Могилівка",
               "short_name" : "Могилівка",
               "types" : 
               [
                  "locality",
                  "political"
               ]
            },
            {
               "long_name" : "Герцаївський район",
               "short_name" : "Герцаївський район",
               "types" : 
               [
                  "administrative_area_level_2",
                  "political"
               ]
            },
            {
               "long_name" : "Чернівецька область",
               "short_name" : "Чернівецька область",
               "types" : 
               [
                  "administrative_area_level_1",
                  "political"
               ]
            },
            {
               "long_name" : "Україна",
               "short_name" : "UA",
               "types" : 
               [
                  "country",
                  "political"
               ]
            },
            {
               "long_name" : "60512",
               "short_name" : "60512",
               "types" : 
               [
                  "postal_code"
               ]
            }
         ],
         "formatted_address" : "Могилівка, Чернівецька область, Україна, 60512",
         "geometry" : 
         {
            "bounds" : 
            {
               "northeast" : 
               {
                  "lat" : 48.159993,
                  "lng" : 26.2927159
               },
               "southwest" : 
               {
                  "lat" : 48.135801,
                  "lng" : 26.267733
               }
            },
            "location" : 
            {
               "lat" : 48.1503197,
               "lng" : 26.2719139
            },
            "location_type" : "APPROXIMATE",
            "viewport" : 
            {
               "northeast" : 
               {
                  "lat" : 48.159993,
                  "lng" : 26.2927159
               },
               "southwest" : 
               {
                  "lat" : 48.135801,
                  "lng" : 26.267733
               }
            }
         },
         "partial_match" : true,
         "place_id" : "ChIJ41GyTPBwNEcR_hY49Qqq0zQ",
         "types" : 
         [
            "locality",
            "political"
         ]
      },
      {
         "address_components" : 
         [
            {
               "long_name" : "Чернівці",
               "short_name" : "Чернівці",
               "types" : 
               [
                  "locality",
                  "political"
               ]
            },
            {
               "long_name" : "Чернівецький район",
               "short_name" : "Чернівецький район",
               "types" : 
               [
                  "administrative_area_level_2",
                  "political"
               ]
            },
            {
               "long_name" : "Вінницька область",
               "short_name" : "Вінницька область",
               "types" : 
               [
                  "administrative_area_level_1",
                  "political"
               ]
            },
            {
               "long_name" : "Україна",
               "short_name" : "UA",
               "types" : 
               [
                  "country",
                  "political"
               ]
            },
            {
               "long_name" : "24100",
               "short_name" : "24100",
               "types" : 
               [
                  "postal_code"
               ]
            }
         ],
         "formatted_address" : "Чернівці, Вінницька область, Україна, 24100",
         "geometry" : 
         {
            "bounds" : 
            {
               "northeast" : 
               {
                  "lat" : 48.5569821,
                  "lng" : 28.12871
               },
               "southwest" : 
               {
                  "lat" : 48.528417,
                  "lng" : 28.0860399
               }
            },
            "location" : 
            {
               "lat" : 48.5404811,
               "lng" : 28.108548
            },
            "location_type" : "APPROXIMATE",
            "viewport" : 
            {
               "northeast" : 
               {
                  "lat" : 48.5569821,
                  "lng" : 28.12871
               },
               "southwest" : 
               {
                  "lat" : 48.528417,
                  "lng" : 28.0860399
               }
            }
         },
         "partial_match" : true,
         "place_id" : "ChIJi68wYM_UMkcRFhqhylA7tt4",
         "types" : 
         [
            "locality",
            "political"
         ]
      }
   ],
   "status" : "OK"
}