{
   "results" : 
   [
      {
         "address_components" : 
         [
            {
               "long_name" : "Драниця",
               "short_name" : "Драниця",
               "types" : 
               [
                  "locality",
                  "political"
               ]
            },
            {
               "long_name" : "Новоселицький район",
               "short_name" : "Новоселицький район",
               "types" : 
               [
                  "administrative_area_level_2",
                  "political"
               ]
            },
            {
               "long_name" : "Чернівецька область",
               "short_name" : "Чернівецька область",
               "types" : 
               [
                  "administrative_area_level_1",
                  "political"
               ]
            },
            {
               "long_name" : "Україна",
               "short_name" : "UA",
               "types" : 
               [
                  "country",
                  "political"
               ]
            },
            {
               "long_name" : "60356",
               "short_name" : "60356",
               "types" : 
               [
                  "postal_code"
               ]
            }
         ],
         "formatted_address" : "Драниця, Чернівецька область, Україна, 60356",
         "geometry" : 
         {
            "bounds" : 
            {
               "northeast" : 
               {
                  "lat" : 48.27640900000001,
                  "lng" : 26.5439871
               },
               "southwest" : 
               {
                  "lat" : 48.222673,
                  "lng" : 26.5123431
               }
            },
            "location" : 
            {
               "lat" : 48.2285699,
               "lng" : 26.5332543
            },
            "location_type" : "APPROXIMATE",
            "viewport" : 
            {
               "northeast" : 
               {
                  "lat" : 48.27640900000001,
                  "lng" : 26.5439871
               },
               "southwest" : 
               {
                  "lat" : 48.222673,
                  "lng" : 26.5123431
               }
            }
         },
         "partial_match" : true,
         "place_id" : "ChIJrWd9y-GGM0cRHCjpoSgkU4Q",
         "types" : 
         [
            "locality",
            "political"
         ]
      },
      {
         "address_components" : 
         [
            {
               "long_name" : "Чернівецький район",
               "short_name" : "Чернівецький район",
               "types" : 
               [
                  "administrative_area_level_2",
                  "political"
               ]
            },
            {
               "long_name" : "Вінницька область",
               "short_name" : "Вінницька область",
               "types" : 
               [
                  "administrative_area_level_1",
                  "political"
               ]
            },
            {
               "long_name" : "Україна",
               "short_name" : "UA",
               "types" : 
               [
                  "country",
                  "political"
               ]
            }
         ],
         "formatted_address" : "Чернівецький район, Вінницька область, Україна",
         "geometry" : 
         {
            "bounds" : 
            {
               "northeast" : 
               {
                  "lat" : 48.651179,
                  "lng" : 28.351943
               },
               "southwest" : 
               {
                  "lat" : 48.349162,
                  "lng" : 27.949276
               }
            },
            "location" : 
            {
               "lat" : 48.5128518,
               "lng" : 28.1819806
            },
            "location_type" : "APPROXIMATE",
            "viewport" : 
            {
               "northeast" : 
               {
                  "lat" : 48.651179,
                  "lng" : 28.351943
               },
               "southwest" : 
               {
                  "lat" : 48.349162,
                  "lng" : 27.949276
               }
            }
         },
         "partial_match" : true,
         "place_id" : "ChIJm3N_qPIqzUARGsFHrKFURfw",
         "types" : 
         [
            "administrative_area_level_2",
            "political"
         ]
      }
   ],
   "status" : "OK"
}