{
   "results" : 
   [
      {
         "address_components" : 
         [
            {
               "long_name" : "Нові Яриловичі",
               "short_name" : "Нові Яриловичі",
               "types" : 
               [
                  "locality",
                  "political"
               ]
            },
            {
               "long_name" : "Ріпкинський район",
               "short_name" : "Ріпкинський район",
               "types" : 
               [
                  "administrative_area_level_2",
                  "political"
               ]
            },
            {
               "long_name" : "Чернігівська область",
               "short_name" : "Чернігівська область",
               "types" : 
               [
                  "administrative_area_level_1",
                  "political"
               ]
            },
            {
               "long_name" : "Україна",
               "short_name" : "UA",
               "types" : 
               [
                  "country",
                  "political"
               ]
            },
            {
               "long_name" : "15013",
               "short_name" : "15013",
               "types" : 
               [
                  "postal_code"
               ]
            }
         ],
         "formatted_address" : "Нові Яриловичі, Чернігівська область, Україна, 15013",
         "geometry" : 
         {
            "bounds" : 
            {
               "northeast" : 
               {
                  "lat" : 52.043663,
                  "lng" : 31.023672
               },
               "southwest" : 
               {
                  "lat" : 52.017474,
                  "lng" : 30.9867568
               }
            },
            "location" : 
            {
               "lat" : 52.0304667,
               "lng" : 31.0092974
            },
            "location_type" : "APPROXIMATE",
            "viewport" : 
            {
               "northeast" : 
               {
                  "lat" : 52.043663,
                  "lng" : 31.023672
               },
               "southwest" : 
               {
                  "lat" : 52.017474,
                  "lng" : 30.9867568
               }
            }
         },
         "partial_match" : true,
         "place_id" : "ChIJoYUdQMX_1EYRGFTqn1luyTs",
         "types" : 
         [
            "locality",
            "political"
         ]
      },
      {
         "address_components" : 
         [
            {
               "long_name" : "Чернігівський район",
               "short_name" : "Чернігівський район",
               "types" : 
               [
                  "administrative_area_level_2",
                  "political"
               ]
            },
            {
               "long_name" : "Чернігівська область",
               "short_name" : "Чернігівська область",
               "types" : 
               [
                  "administrative_area_level_1",
                  "political"
               ]
            },
            {
               "long_name" : "Україна",
               "short_name" : "UA",
               "types" : 
               [
                  "country",
                  "political"
               ]
            }
         ],
         "formatted_address" : "Чернігівський район, Чернігівська область, Україна",
         "geometry" : 
         {
            "bounds" : 
            {
               "northeast" : 
               {
                  "lat" : 51.7051801,
                  "lng" : 31.695354
               },
               "southwest" : 
               {
                  "lat" : 51.172694,
                  "lng" : 30.5400821
               }
            },
            "location" : 
            {
               "lat" : 51.3773101,
               "lng" : 30.9443955
            },
            "location_type" : "APPROXIMATE",
            "viewport" : 
            {
               "northeast" : 
               {
                  "lat" : 51.7051801,
                  "lng" : 31.695354
               },
               "southwest" : 
               {
                  "lat" : 51.172694,
                  "lng" : 30.5400821
               }
            }
         },
         "partial_match" : true,
         "place_id" : "ChIJ8eGKCCNF1UYRQPHQFM2rvLs",
         "types" : 
         [
            "administrative_area_level_2",
            "political"
         ]
      }
   ],
   "status" : "OK"
}