{
   "results" : 
   [
      {
         "address_components" : 
         [
            {
               "long_name" : "Вижницький район",
               "short_name" : "Вижницький район",
               "types" : 
               [
                  "administrative_area_level_2",
                  "political"
               ]
            },
            {
               "long_name" : "Чернівецька область",
               "short_name" : "Чернівецька область",
               "types" : 
               [
                  "administrative_area_level_1",
                  "political"
               ]
            },
            {
               "long_name" : "Україна",
               "short_name" : "UA",
               "types" : 
               [
                  "country",
                  "political"
               ]
            }
         ],
         "formatted_address" : "Вижницький район, Чернівецька область, Україна",
         "geometry" : 
         {
            "bounds" : 
            {
               "northeast" : 
               {
                  "lat" : 48.403335,
                  "lng" : 25.558001
               },
               "southwest" : 
               {
                  "lat" : 47.913639,
                  "lng" : 25.133772
               }
            },
            "location" : 
            {
               "lat" : 48.1929172,
               "lng" : 25.3481463
            },
            "location_type" : "APPROXIMATE",
            "viewport" : 
            {
               "northeast" : 
               {
                  "lat" : 48.403335,
                  "lng" : 25.558001
               },
               "southwest" : 
               {
                  "lat" : 47.913639,
                  "lng" : 25.133772
               }
            }
         },
         "partial_match" : true,
         "place_id" : "ChIJDf5fQnOiNkcRjjUhi2riRGY",
         "types" : 
         [
            "administrative_area_level_2",
            "political"
         ]
      },
      {
         "address_components" : 
         [
            {
               "long_name" : "Путила",
               "short_name" : "Путила",
               "types" : 
               [
                  "locality",
                  "political"
               ]
            },
            {
               "long_name" : "Путильський район",
               "short_name" : "Путильський район",
               "types" : 
               [
                  "administrative_area_level_2",
                  "political"
               ]
            },
            {
               "long_name" : "Чернівецька область",
               "short_name" : "Чернівецька область",
               "types" : 
               [
                  "administrative_area_level_1",
                  "political"
               ]
            },
            {
               "long_name" : "Україна",
               "short_name" : "UA",
               "types" : 
               [
                  "country",
                  "political"
               ]
            },
            {
               "long_name" : "59101",
               "short_name" : "59101",
               "types" : 
               [
                  "postal_code"
               ]
            }
         ],
         "formatted_address" : "Путила, Чернівецька область, Україна, 59101",
         "geometry" : 
         {
            "bounds" : 
            {
               "northeast" : 
               {
                  "lat" : 48.02138,
                  "lng" : 25.1425261
               },
               "southwest" : 
               {
                  "lat" : 47.969141,
                  "lng" : 25.048464
               }
            },
            "location" : 
            {
               "lat" : 47.9949749,
               "lng" : 25.0974541
            },
            "location_type" : "APPROXIMATE",
            "viewport" : 
            {
               "northeast" : 
               {
                  "lat" : 48.02138,
                  "lng" : 25.1425261
               },
               "southwest" : 
               {
                  "lat" : 47.969141,
                  "lng" : 25.048464
               }
            }
         },
         "partial_match" : true,
         "place_id" : "ChIJCY0fi4CFNkcREEpmC6EepWQ",
         "types" : 
         [
            "locality",
            "political"
         ]
      }
   ],
   "status" : "OK"
}