{
   "results" : 
   [
      {
         "address_components" : 
         [
            {
               "long_name" : "Хотинський район",
               "short_name" : "Хотинський район",
               "types" : 
               [
                  "administrative_area_level_2",
                  "political"
               ]
            },
            {
               "long_name" : "Чернівецька область",
               "short_name" : "Чернівецька область",
               "types" : 
               [
                  "administrative_area_level_1",
                  "political"
               ]
            },
            {
               "long_name" : "Україна",
               "short_name" : "UA",
               "types" : 
               [
                  "country",
                  "political"
               ]
            }
         ],
         "formatted_address" : "Хотинський район, Чернівецька область, Україна",
         "geometry" : 
         {
            "bounds" : 
            {
               "northeast" : 
               {
                  "lat" : 48.620079,
                  "lng" : 26.593772
               },
               "southwest" : 
               {
                  "lat" : 48.306757,
                  "lng" : 26.0464011
               }
            },
            "location" : 
            {
               "lat" : 48.4469175,
               "lng" : 26.418688
            },
            "location_type" : "APPROXIMATE",
            "viewport" : 
            {
               "northeast" : 
               {
                  "lat" : 48.620079,
                  "lng" : 26.593772
               },
               "southwest" : 
               {
                  "lat" : 48.306757,
                  "lng" : 26.0464011
               }
            }
         },
         "partial_match" : true,
         "place_id" : "ChIJjeykyhvtM0cRyvoNEkOTE3M",
         "types" : 
         [
            "administrative_area_level_2",
            "political"
         ]
      },
      {
         "address_components" : 
         [
            {
               "long_name" : "Мамалига",
               "short_name" : "Мамалига",
               "types" : 
               [
                  "locality",
                  "political"
               ]
            },
            {
               "long_name" : "Новоселицький район",
               "short_name" : "Новоселицький район",
               "types" : 
               [
                  "administrative_area_level_2",
                  "political"
               ]
            },
            {
               "long_name" : "Чернівецька область",
               "short_name" : "Чернівецька область",
               "types" : 
               [
                  "administrative_area_level_1",
                  "political"
               ]
            },
            {
               "long_name" : "Україна",
               "short_name" : "UA",
               "types" : 
               [
                  "country",
                  "political"
               ]
            },
            {
               "long_name" : "60364",
               "short_name" : "60364",
               "types" : 
               [
                  "postal_code"
               ]
            }
         ],
         "formatted_address" : "Мамалига, Чернівецька область, Україна, 60364",
         "geometry" : 
         {
            "bounds" : 
            {
               "northeast" : 
               {
                  "lat" : 48.27032,
                  "lng" : 26.6032231
               },
               "southwest" : 
               {
                  "lat" : 48.240856,
                  "lng" : 26.5717639
               }
            },
            "location" : 
            {
               "lat" : 48.2533474,
               "lng" : 26.5841501
            },
            "location_type" : "APPROXIMATE",
            "viewport" : 
            {
               "northeast" : 
               {
                  "lat" : 48.27032,
                  "lng" : 26.6032231
               },
               "southwest" : 
               {
                  "lat" : 48.240856,
                  "lng" : 26.5717639
               }
            }
         },
         "partial_match" : true,
         "place_id" : "ChIJCdSftz-BM0cRic0_9RxQIew",
         "types" : 
         [
            "locality",
            "political"
         ]
      }
   ],
   "status" : "OK"
}