{
   "results" : 
   [
      {
         "address_components" : 
         [
            {
               "long_name" : "Гірськ",
               "short_name" : "Гірськ",
               "types" : 
               [
                  "locality",
                  "political"
               ]
            },
            {
               "long_name" : "Сновський район",
               "short_name" : "Сновський район",
               "types" : 
               [
                  "administrative_area_level_2",
                  "political"
               ]
            },
            {
               "long_name" : "Чернігівська область",
               "short_name" : "Чернігівська область",
               "types" : 
               [
                  "administrative_area_level_1",
                  "political"
               ]
            },
            {
               "long_name" : "Україна",
               "short_name" : "UA",
               "types" : 
               [
                  "country",
                  "political"
               ]
            },
            {
               "long_name" : "15211",
               "short_name" : "15211",
               "types" : 
               [
                  "postal_code"
               ]
            }
         ],
         "formatted_address" : "Гірськ, Чернігівська область, Україна, 15211",
         "geometry" : 
         {
            "bounds" : 
            {
               "northeast" : 
               {
                  "lat" : 52.036139,
                  "lng" : 31.85971589999999
               },
               "southwest" : 
               {
                  "lat" : 52.006787,
                  "lng" : 31.841633
               }
            },
            "location" : 
            {
               "lat" : 52.0245982,
               "lng" : 31.852275
            },
            "location_type" : "APPROXIMATE",
            "viewport" : 
            {
               "northeast" : 
               {
                  "lat" : 52.036139,
                  "lng" : 31.85971589999999
               },
               "southwest" : 
               {
                  "lat" : 52.006787,
                  "lng" : 31.841633
               }
            }
         },
         "partial_match" : true,
         "place_id" : "ChIJJaFuzcnF1EYRWB9susq55dY",
         "types" : 
         [
            "locality",
            "political"
         ]
      },
      {
         "address_components" : 
         [
            {
               "long_name" : "Корюківський район",
               "short_name" : "Корюківський район",
               "types" : 
               [
                  "administrative_area_level_2",
                  "political"
               ]
            },
            {
               "long_name" : "Чернігівська область",
               "short_name" : "Чернігівська область",
               "types" : 
               [
                  "administrative_area_level_1",
                  "political"
               ]
            },
            {
               "long_name" : "Україна",
               "short_name" : "UA",
               "types" : 
               [
                  "country",
                  "political"
               ]
            }
         ],
         "formatted_address" : "Корюківський район, Чернігівська область, Україна",
         "geometry" : 
         {
            "bounds" : 
            {
               "northeast" : 
               {
                  "lat" : 52.08212469999999,
                  "lng" : 32.816909
               },
               "southwest" : 
               {
                  "lat" : 51.586372,
                  "lng" : 32.038431
               }
            },
            "location" : 
            {
               "lat" : 51.8229352,
               "lng" : 32.4216236
            },
            "location_type" : "APPROXIMATE",
            "viewport" : 
            {
               "northeast" : 
               {
                  "lat" : 52.08212469999999,
                  "lng" : 32.816909
               },
               "southwest" : 
               {
                  "lat" : 51.586372,
                  "lng" : 32.038431
               }
            }
         },
         "partial_match" : true,
         "place_id" : "ChIJ_9Ha6U06K0ERTIYu8DHRUTw",
         "types" : 
         [
            "administrative_area_level_2",
            "political"
         ]
      }
   ],
   "status" : "OK"
}