{
   "results" : 
   [
      {
         "address_components" : 
         [
            {
               "long_name" : "Корчівці",
               "short_name" : "Корчівці",
               "types" : 
               [
                  "locality",
                  "political"
               ]
            },
            {
               "long_name" : "Глибоцький район",
               "short_name" : "Глибоцький район",
               "types" : 
               [
                  "administrative_area_level_2",
                  "political"
               ]
            },
            {
               "long_name" : "Чернівецька область",
               "short_name" : "Чернівецька область",
               "types" : 
               [
                  "administrative_area_level_1",
                  "political"
               ]
            },
            {
               "long_name" : "Україна",
               "short_name" : "UA",
               "types" : 
               [
                  "country",
                  "political"
               ]
            }
         ],
         "formatted_address" : "Корчівці, Чернівецька область, Україна",
         "geometry" : 
         {
            "bounds" : 
            {
               "northeast" : 
               {
                  "lat" : 48.0275045,
                  "lng" : 25.796306
               },
               "southwest" : 
               {
                  "lat" : 47.9945959,
                  "lng" : 25.7481552
               }
            },
            "location" : 
            {
               "lat" : 48.0105194,
               "lng" : 25.7697257
            },
            "location_type" : "APPROXIMATE",
            "viewport" : 
            {
               "northeast" : 
               {
                  "lat" : 48.0275045,
                  "lng" : 25.796306
               },
               "southwest" : 
               {
                  "lat" : 47.9945959,
                  "lng" : 25.7481552
               }
            }
         },
         "partial_match" : true,
         "place_id" : "ChIJ63biFNQ9NEcR_mdFM0v6WXU",
         "types" : 
         [
            "locality",
            "political"
         ]
      },
      {
         "address_components" : 
         [
            {
               "long_name" : "Чернівецький район",
               "short_name" : "Чернівецький район",
               "types" : 
               [
                  "administrative_area_level_2",
                  "political"
               ]
            },
            {
               "long_name" : "Вінницька область",
               "short_name" : "Вінницька область",
               "types" : 
               [
                  "administrative_area_level_1",
                  "political"
               ]
            },
            {
               "long_name" : "Україна",
               "short_name" : "UA",
               "types" : 
               [
                  "country",
                  "political"
               ]
            }
         ],
         "formatted_address" : "Чернівецький район, Вінницька область, Україна",
         "geometry" : 
         {
            "bounds" : 
            {
               "northeast" : 
               {
                  "lat" : 48.651179,
                  "lng" : 28.351943
               },
               "southwest" : 
               {
                  "lat" : 48.349162,
                  "lng" : 27.949276
               }
            },
            "location" : 
            {
               "lat" : 48.5128518,
               "lng" : 28.1819806
            },
            "location_type" : "APPROXIMATE",
            "viewport" : 
            {
               "northeast" : 
               {
                  "lat" : 48.651179,
                  "lng" : 28.351943
               },
               "southwest" : 
               {
                  "lat" : 48.349162,
                  "lng" : 27.949276
               }
            }
         },
         "partial_match" : true,
         "place_id" : "ChIJm3N_qPIqzUARGsFHrKFURfw",
         "types" : 
         [
            "administrative_area_level_2",
            "political"
         ]
      }
   ],
   "status" : "OK"
}