{
   "results" : 
   [
      {
         "address_components" : 
         [
            {
               "long_name" : "Верховинський район",
               "short_name" : "Верховинський район",
               "types" : 
               [
                  "administrative_area_level_2",
                  "political"
               ]
            },
            {
               "long_name" : "Івано-Франківська область",
               "short_name" : "Івано-Франківська область",
               "types" : 
               [
                  "administrative_area_level_1",
                  "political"
               ]
            },
            {
               "long_name" : "Україна",
               "short_name" : "UA",
               "types" : 
               [
                  "country",
                  "political"
               ]
            }
         ],
         "formatted_address" : "Верховинський район, Івано-Франківська область, Україна",
         "geometry" : 
         {
            "bounds" : 
            {
               "northeast" : 
               {
                  "lat" : 48.279416,
                  "lng" : 25.090284
               },
               "southwest" : 
               {
                  "lat" : 47.7243762,
                  "lng" : 24.5539909
               }
            },
            "location" : 
            {
               "lat" : 48.0615596,
               "lng" : 24.8211382
            },
            "location_type" : "APPROXIMATE",
            "viewport" : 
            {
               "northeast" : 
               {
                  "lat" : 48.279416,
                  "lng" : 25.090284
               },
               "southwest" : 
               {
                  "lat" : 47.7243762,
                  "lng" : 24.5539909
               }
            }
         },
         "partial_match" : true,
         "place_id" : "ChIJG8h067b0NkcRUvFqkXvYlQY",
         "types" : 
         [
            "administrative_area_level_2",
            "political"
         ]
      },
      {
         "address_components" : 
         [
            {
               "long_name" : "Татарів",
               "short_name" : "Татарів",
               "types" : 
               [
                  "locality",
                  "political"
               ]
            },
            {
               "long_name" : "Яремчанська міськрада",
               "short_name" : "Яремчанська міськрада",
               "types" : 
               [
                  "administrative_area_level_3",
                  "political"
               ]
            },
            {
               "long_name" : "Івано-Франківська область",
               "short_name" : "Івано-Франківська область",
               "types" : 
               [
                  "administrative_area_level_1",
                  "political"
               ]
            },
            {
               "long_name" : "Україна",
               "short_name" : "UA",
               "types" : 
               [
                  "country",
                  "political"
               ]
            }
         ],
         "formatted_address" : "Татарів, Івано-Франківська область, Україна",
         "geometry" : 
         {
            "bounds" : 
            {
               "northeast" : 
               {
                  "lat" : 48.37238,
                  "lng" : 24.5964146
               },
               "southwest" : 
               {
                  "lat" : 48.3097877,
                  "lng" : 24.5149182
               }
            },
            "location" : 
            {
               "lat" : 48.3424531,
               "lng" : 24.5753745
            },
            "location_type" : "APPROXIMATE",
            "viewport" : 
            {
               "northeast" : 
               {
                  "lat" : 48.37238,
                  "lng" : 24.5964146
               },
               "southwest" : 
               {
                  "lat" : 48.3097877,
                  "lng" : 24.5149182
               }
            }
         },
         "partial_match" : true,
         "place_id" : "ChIJ9yeQxT0gN0cR0g4smGLK8nI",
         "types" : 
         [
            "locality",
            "political"
         ]
      }
   ],
   "status" : "OK"
}