{
   "results" : 
   [
      {
         "address_components" : 
         [
            {
               "long_name" : "Верховинський район",
               "short_name" : "Верховинський район",
               "types" : 
               [
                  "administrative_area_level_2",
                  "political"
               ]
            },
            {
               "long_name" : "Івано-Франківська область",
               "short_name" : "Івано-Франківська область",
               "types" : 
               [
                  "administrative_area_level_1",
                  "political"
               ]
            },
            {
               "long_name" : "Україна",
               "short_name" : "UA",
               "types" : 
               [
                  "country",
                  "political"
               ]
            }
         ],
         "formatted_address" : "Верховинський район, Івано-Франківська область, Україна",
         "geometry" : 
         {
            "bounds" : 
            {
               "northeast" : 
               {
                  "lat" : 48.279416,
                  "lng" : 25.090284
               },
               "southwest" : 
               {
                  "lat" : 47.7243762,
                  "lng" : 24.5539909
               }
            },
            "location" : 
            {
               "lat" : 48.0615596,
               "lng" : 24.8211382
            },
            "location_type" : "APPROXIMATE",
            "viewport" : 
            {
               "northeast" : 
               {
                  "lat" : 48.279416,
                  "lng" : 25.090284
               },
               "southwest" : 
               {
                  "lat" : 47.7243762,
                  "lng" : 24.5539909
               }
            }
         },
         "partial_match" : true,
         "place_id" : "ChIJG8h067b0NkcRUvFqkXvYlQY",
         "types" : 
         [
            "administrative_area_level_2",
            "political"
         ]
      },
      {
         "address_components" : 
         [
            {
               "long_name" : "Луквиця",
               "short_name" : "Луквиця",
               "types" : 
               [
                  "locality",
                  "political"
               ]
            },
            {
               "long_name" : "Богородчанський район",
               "short_name" : "Богородчанський район",
               "types" : 
               [
                  "administrative_area_level_2",
                  "political"
               ]
            },
            {
               "long_name" : "Івано-Франківська область",
               "short_name" : "Івано-Франківська область",
               "types" : 
               [
                  "administrative_area_level_1",
                  "political"
               ]
            },
            {
               "long_name" : "Україна",
               "short_name" : "UA",
               "types" : 
               [
                  "country",
                  "political"
               ]
            },
            {
               "long_name" : "77740",
               "short_name" : "77740",
               "types" : 
               [
                  "postal_code"
               ]
            }
         ],
         "formatted_address" : "Луквиця, Івано-Франківська область, Україна, 77740",
         "geometry" : 
         {
            "bounds" : 
            {
               "northeast" : 
               {
                  "lat" : 48.753291,
                  "lng" : 24.279013
               },
               "southwest" : 
               {
                  "lat" : 48.730626,
                  "lng" : 24.241609
               }
            },
            "location" : 
            {
               "lat" : 48.7441093,
               "lng" : 24.2547762
            },
            "location_type" : "APPROXIMATE",
            "viewport" : 
            {
               "northeast" : 
               {
                  "lat" : 48.753291,
                  "lng" : 24.279013
               },
               "southwest" : 
               {
                  "lat" : 48.730626,
                  "lng" : 24.241609
               }
            }
         },
         "partial_match" : true,
         "place_id" : "ChIJj6bmCMVMN0cR8aLhi7dUurY",
         "types" : 
         [
            "locality",
            "political"
         ]
      }
   ],
   "status" : "OK"
}